year,station_id,station_name,latitude,longitude,departures,arrivals,total_trips,net_flow,period
2019,1,18 Dorrance Warehouse,42.387151,-71.075978,497,621,1118,124,Pre-Pandemic (2019)
2019,10,B.U. Central - 725 Comm. Ave.,42.350406,-71.108279,17340,17399,34739,59,Pre-Pandemic (2019)
2019,100,Davis Square,42.396969,-71.123024,14717,16794,31511,2077,Pre-Pandemic (2019)
2019,101,Ball Sq,42.397822126245096,-71.1060666978301,288,253,541,-35,Pre-Pandemic (2019)
2019,101,Ball Sq,42.39915588714573,-71.11102573591778,689,686,1375,-3,Pre-Pandemic (2019)
2019,101,Ball Sq,42.39918259930251,-71.11104454854285,382,349,731,-33,Pre-Pandemic (2019)
2019,102,Powder House Circle - Nathan Tufts Park,42.400877,-71.116772,3340,3189,6529,-151,Pre-Pandemic (2019)
2019,103,JFK Crossing at Harvard St. / Thorndike St.,42.346563,-71.128374,4209,3857,8066,-352,Pre-Pandemic (2019)
2019,104,Harvard University Radcliffe Quadrangle at Shepard St / Garden St,42.380287,-71.125107,8692,8476,17168,-216,Pre-Pandemic (2019)
2019,105,Lower Cambridgeport at Magazine St / Riverside Rd,42.357218503176526,-71.1138716340065,19006,19613,38619,607,Pre-Pandemic (2019)
2019,106,Dudley Town Common - Mt Pleasant Ave at Blue Hill Ave,42.325333,-71.075354,1016,989,2005,-27,Pre-Pandemic (2019)
2019,107,Ames St at Main St,42.3625,-71.08822,39117,46289,85406,7172,Pre-Pandemic (2019)
2019,108,Harvard University / SEAS Cruft-Pierce Halls at 29 Oxford St,42.377945,-71.116865,12235,12464,24699,229,Pre-Pandemic (2019)
2019,109,TD Garden - West End Park,42.36590788445084,-71.06446668505669,525,492,1017,-33,Pre-Pandemic (2019)
2019,109,West End Park,42.36590788445084,-71.06446668505669,6964,6486,13450,-478,Pre-Pandemic (2019)
2019,11,Longwood Ave at Binney St,42.338629,-71.1065,16788,19247,36035,2459,Pre-Pandemic (2019)
2019,110,Harvard University Gund Hall at Quincy St / Kirkland S,42.376369,-71.114025,7557,7656,15213,99,Pre-Pandemic (2019)
2019,110,Harvard University Gund Hall at Quincy St / Kirkland St,42.376369,-71.114025,3488,3535,7023,47,Pre-Pandemic (2019)
2019,111,Packard Ave at Powderhouse Blvd,42.40449,-71.123413,3518,3179,6697,-339,Pre-Pandemic (2019)
2019,112,Clarendon Hill at Broadway,42.406302,-71.132446,1018,868,1886,-150,Pre-Pandemic (2019)
2019,113,Andrew T Stop - Dorchester Ave at Dexter St,42.330473650415165,-71.05701684951782,4071,4082,8153,11,Pre-Pandemic (2019)
2019,114,Teele Square,42.40203828065014,-71.1265329148955,1298,937,2235,-361,Pre-Pandemic (2019)
2019,114,Teele Square,42.40231703379005,-71.12671129423688,581,412,993,-169,Pre-Pandemic (2019)
2019,115,Porter Square Station,42.387995,-71.119084,15309,15226,30535,-83,Pre-Pandemic (2019)
2019,116,359 Broadway - Broadway at Fayette Street,42.370803,-71.104412,15182,12471,27653,-2711,Pre-Pandemic (2019)
2019,117,Binney St / Sixth St,42.36608797388682,-71.08633603909765,6453,6500,12953,47,Pre-Pandemic (2019)
2019,117,Binney St / Sixth St,42.36616223459919,-71.08688293667001,3362,3117,6479,-245,Pre-Pandemic (2019)
2019,118,Linear Park - Mass. Ave. at Cameron Ave. ,42.397828,-71.130516,8115,8199,16314,84,Pre-Pandemic (2019)
2019,119,South Boston Library - 646 E Broadway,42.335741,-71.03877,7701,7797,15498,96,Pre-Pandemic (2019)
2019,12,Ruggles T Stop - Columbus Ave at Melnea Cass Blvd,42.33624444796878,-71.08798563480377,17095,17968,35063,873,Pre-Pandemic (2019)
2019,120,Beacon St at Charles St,42.356052,-71.069849,9455,9672,19127,217,Pre-Pandemic (2019)
2019,121,W Broadway at Dorchester St,42.335693,-71.045859,2527,2060,4587,-467,Pre-Pandemic (2019)
2019,121,W Broadway at Dorchester St,42.335958979433094,-71.04622899561036,6740,5673,12413,-1067,Pre-Pandemic (2019)
2019,122,Burlington Ave at Brookline Ave,42.345733,-71.100694,10672,10954,21626,282,Pre-Pandemic (2019)
2019,124,Curtis Hall - South St at Centre St,42.309054,-71.11543,3211,3316,6527,105,Pre-Pandemic (2019)
2019,125,Hyde Square - Barbara St at Centre St,42.32176525723952,-71.10984160567114,5766,5085,10851,-681,Pre-Pandemic (2019)
2019,126,Egleston Square - Atherton St at Washington St,42.315692,-71.098634,1356,1240,2596,-116,Pre-Pandemic (2019)
2019,128,E Cottage St at Columbia Rd,42.320561,-71.06198,2112,2153,4265,41,Pre-Pandemic (2019)
2019,129,Hayes Square - Vine St at Moulton St,42.377022,-71.056605,2125,2181,4306,56,Pre-Pandemic (2019)
2019,13,Boston Medical Center - E Concord St at Harrison Ave,42.33639915372498,-71.07306711393903,5721,5590,11311,-131,Pre-Pandemic (2019)
2019,13,Boston Medical Center - E Concord St at Harrison Ave,42.33671641210506,-71.06880776602338,1226,1227,2453,1,Pre-Pandemic (2019)
2019,130,Upham's Corner,42.31727474327453,-71.06537003967787,538,513,1051,-25,Pre-Pandemic (2019)
2019,130,Uphams Corner,42.31727474327453,-71.06537003967787,779,787,1566,8,Pre-Pandemic (2019)
2019,131,Jackson Square T Stop,42.32293117195949,-71.10014140605927,5978,6064,12042,86,Pre-Pandemic (2019)
2019,133,Green Street T Stop - Green St at Amory St,42.310579,-71.107341,5264,5339,10603,75,Pre-Pandemic (2019)
2019,134,Boylston St at Dartmouth St,42.350413,-71.07655,2363,2372,4735,9,Pre-Pandemic (2019)
2019,134,Boylston St at Dartmouth St FORMER,42.350413,-71.07655,2181,2128,4309,-53,Pre-Pandemic (2019)
2019,135,ID Building East,42.344827,-71.028664,3470,3559,7029,89,Pre-Pandemic (2019)
2019,136,ID Building West,42.344796,-71.031614,5656,6782,12438,1126,Pre-Pandemic (2019)
2019,137,Magoun Square at Trum Field,42.39778339961249,-71.10594004465383,1521,1430,2951,-91,Pre-Pandemic (2019)
2019,137,Magoun Square at Trum Field,42.398365,-71.107818,2673,2336,5009,-337,Pre-Pandemic (2019)
2019,138,Newmarket Square T Stop - Massachusetts Ave at Newmarket Square,42.326599,-71.066498,3352,3674,7026,322,Pre-Pandemic (2019)
2019,139,Dana Park,42.36178043960605,-71.10809952020645,11258,10765,22023,-493,Pre-Pandemic (2019)
2019,14,HMS/HSPH - Avenue Louis Pasteur at Longwood Ave,42.3374174845973,-71.10286116600037,14137,13427,27564,-710,Pre-Pandemic (2019)
2019,140,Danehy Park,42.388966,-71.132788,3100,3254,6354,154,Pre-Pandemic (2019)
2019,141,Kendall Street,42.36356015842989,-71.08216792345047,10561,10950,21511,389,Pre-Pandemic (2019)
2019,142,Alewife Station at Russell Field,42.396105,-71.139459,3304,3480,6784,176,Pre-Pandemic (2019)
2019,143,EF - North Point Park,42.369885,-71.069957,9095,8982,18077,-113,Pre-Pandemic (2019)
2019,144,Rogers St & Land Blvd,42.36575798214837,-71.07699394226073,7221,8036,15257,815,Pre-Pandemic (2019)
2019,145,Rindge Avenue - O'Neill Library,42.392766,-71.129042,2720,2650,5370,-70,Pre-Pandemic (2019)
2019,146,Murphy Skating Rink - 1880 Day Blvd,42.336448,-71.023739,5087,5539,10626,452,Pre-Pandemic (2019)
2019,149,175 N Harvard St,42.363796,-71.129164,11381,11635,23016,254,Pre-Pandemic (2019)
2019,15,Brighton Mills - 370 Western Ave,42.3615457081725,-71.13776206970215,5037,5278,10315,241,Pre-Pandemic (2019)
2019,150,State Street at Channel Center,42.344137,-71.052608,8575,8322,16897,-253,Pre-Pandemic (2019)
2019,151,Surface Rd at India St,42.358155,-71.052163,12005,12540,24545,535,Pre-Pandemic (2019)
2019,152,Ink Block - Harrison Ave at Herald St,42.345901,-71.063187,6843,6960,13803,117,Pre-Pandemic (2019)
2019,156,Somerville Hospital,42.390449490184295,-71.10855950047153,1548,1219,2767,-329,Pre-Pandemic (2019)
2019,156,Somerville Hospital,42.39088801721338,-71.10962569713591,1600,1260,2860,-340,Pre-Pandemic (2019)
2019,156,Somerville Hospital,42.396785885510184,-71.1023729667977,347,230,577,-117,Pre-Pandemic (2019)
2019,157,Seaport Blvd at Sleeper St,42.35317809186252,-71.04817356923377,17537,18188,35725,651,Pre-Pandemic (2019)
2019,159,S Huntington Ave at Heath St,42.32760387040573,-71.11089169979095,3368,2887,6255,-481,Pre-Pandemic (2019)
2019,16,Back Bay T Stop - Dartmouth St at Stuart St,42.34807412317439,-71.07657015323639,23588,23356,46944,-232,Pre-Pandemic (2019)
2019,160,Wentworth Institute of Technology - Huntington Ave at Vancouver St,42.33758601097239,-71.09627097845076,6889,7125,14014,236,Pre-Pandemic (2019)
2019,161,W Broadway at D St,42.3391085,-71.0514432,10397,11002,21399,605,Pre-Pandemic (2019)
2019,162,Franklin Park - Seaver St at Humboldt Ave,42.309796,-71.092225,282,190,472,-92,Pre-Pandemic (2019)
2019,162,Franklin Park - Seaver St at Humbolt Ave,42.309796,-71.092225,439,278,717,-161,Pre-Pandemic (2019)
2019,163,The Lawn on D,42.344792,-71.044024,7002,6682,13684,-320,Pre-Pandemic (2019)
2019,167,Ryan Playground - Dorchester Ave at Harbor View St,42.317642,-71.056664,2371,2421,4792,50,Pre-Pandemic (2019)
2019,169,Edwards Playground - Main St at Eden St,42.378965,-71.068607,3980,3928,7908,-52,Pre-Pandemic (2019)
2019,17,Soldiers Field Park - 111 Western Ave,42.36426344063853,-71.1182756971175,8484,8458,16942,-26,Pre-Pandemic (2019)
2019,170,Franklin Park Zoo - Franklin Park Rd at Blue Hill Ave,42.303469,-71.085347,717,633,1350,-84,Pre-Pandemic (2019)
2019,171,Bunker Hill Community College,42.37408991426522,-71.06905996799469,5259,4467,9726,-792,Pre-Pandemic (2019)
2019,173,Savin Hill T Stop - S Sydney St at Bay St,42.3106,-71.0539,1317,1399,2716,82,Pre-Pandemic (2019)
2019,174,Washington St at Brock St,42.3489528466951,-71.16031676530838,1635,1695,3330,60,Pre-Pandemic (2019)
2019,175,Brighton Center - Washington St at Cambridge St,42.34894857235593,-71.15027189254761,4419,4149,8568,-270,Pre-Pandemic (2019)
2019,176,Lesley University,42.38674802045056,-71.11901879310608,6079,6316,12395,237,Pre-Pandemic (2019)
2019,177,University Park,42.36264779118595,-71.10006093978882,20009,18784,38793,-1225,Pre-Pandemic (2019)
2019,178,MIT Pacific St at Purrington St,42.35957320109044,-71.10129475593567,34989,32912,67901,-2077,Pre-Pandemic (2019)
2019,179,MIT Vassar St,42.355601213279265,-71.10394477844238,29786,28514,58300,-1272,Pre-Pandemic (2019)
2019,180,Mt Auburn,42.37478628706384,-71.13320231437683,4165,4221,8386,56,Pre-Pandemic (2019)
2019,181,Huron Ave At Vassal Lane,42.381650612901176,-71.13426981498378,3622,3631,7253,9,Pre-Pandemic (2019)
2019,182,Museum of Science,42.36769018024484,-71.07116281986237,5118,5047,10165,-71,Pre-Pandemic (2019)
2019,183,Alewife MBTA at Steel Place,42.395588457167094,-71.14260613918304,3695,3791,7486,96,Pre-Pandemic (2019)
2019,184,Sidney Research Campus/ Erie Street at Waverly,42.35775309465199,-71.10393404960632,8151,8482,16633,331,Pre-Pandemic (2019)
2019,184,Sidney Research Campus/Erie Street at Waverly,42.35775309465199,-71.10393404960632,3548,3724,7272,176,Pre-Pandemic (2019)
2019,185,Third at Binney,42.36544486137399,-71.08277142047882,11929,11942,23871,13,Pre-Pandemic (2019)
2019,186,Congress St at Northern Ave,42.3481,-71.03764,5556,5585,11141,29,Pre-Pandemic (2019)
2019,187,Cypress St at Clark Playground,42.32784317478686,-71.1253622174263,1192,1012,2204,-180,Pre-Pandemic (2019)
2019,188,Foss Park,42.39108438146733,-71.09039425849915,2768,2910,5678,142,Pre-Pandemic (2019)
2019,189,Kendall T,42.3624278429124,-71.08495473861694,36908,32376,69284,-4532,Pre-Pandemic (2019)
2019,19,Park Dr at Buswell St,42.347241,-71.105301,11787,12087,23874,300,Pre-Pandemic (2019)
2019,190,Nashua Street at Red Auerbach Way,42.365673,-71.064263,36636,46223,82859,9587,Pre-Pandemic (2019)
2019,191,Tappan St at Brookline Hills MBTA,42.33209606301936,-71.128458827734,1462,1480,2942,18,Pre-Pandemic (2019)
2019,192,Purchase St at Pearl St,42.354659,-71.053181,9894,9850,19744,-44,Pre-Pandemic (2019)
2019,193,Brookline Town Hall,42.33376472623494,-71.12046446660315,3355,3833,7188,478,Pre-Pandemic (2019)
2019,194,Broadway St at Mt Pleasant St,42.38614141163957,-71.07828140258789,3713,3252,6965,-461,Pre-Pandemic (2019)
2019,195,Child St at North St,42.37150494100319,-71.07249312120985,6168,6076,12244,-92,Pre-Pandemic (2019)
2019,196,Roxbury YMCA - Warren St at MLK Blvd,42.31787329345602,-71.08243077993393,1292,1257,2549,-35,Pre-Pandemic (2019)
2019,197,MLK Blvd at Washington St,42.32143814183195,-71.09126061201096,1830,1590,3420,-240,Pre-Pandemic (2019)
2019,199,Upham's Corner T Stop - Magnolia St at Dudley St,42.318697341722434,-71.0697814822197,520,518,1038,-2,Pre-Pandemic (2019)
2019,199,Uphams Corner T Stop - Magnolia St at Dudley St,42.318697341722434,-71.0697814822197,613,631,1244,18,Pre-Pandemic (2019)
2019,20,Aquarium T Stop - 200 Atlantic Ave,42.35991176110118,-71.0514298081398,17523,18663,36186,1140,Pre-Pandemic (2019)
2019,200,Washington St at Melnea Cass Blvd,42.332817,-71.081198,3051,3170,6221,119,Pre-Pandemic (2019)
2019,201,NCAAA - Walnut Ave at Crawford St,42.316902,-71.091946,1002,687,1689,-315,Pre-Pandemic (2019)
2019,202,Grove Hall Library - 41 Geneva Ave,42.30791,-71.080952,458,414,872,-44,Pre-Pandemic (2019)
2019,203,Columbia Rd at Ceylon St,42.309572,-71.0729,722,651,1373,-71,Pre-Pandemic (2019)
2019,204,Walnut Ave at Warren St,42.324081,-71.083235,835,797,1632,-38,Pre-Pandemic (2019)
2019,205,Bowdoin St at Quincy St,42.30785224238503,-71.06512248516083,1230,1133,2363,-97,Pre-Pandemic (2019)
2019,206,Government Center - Cambridge St at Court St,42.359802515995526,-71.05960782626425,8478,6851,15329,-1627,Pre-Pandemic (2019)
2019,206,Government Center - Cambridge St at Court St,42.3598253979878,-71.05979576244862,5728,4561,10289,-1167,Pre-Pandemic (2019)
2019,208,Oak Square - 615 Washington St,42.35057,-71.166491,1719,1874,3593,155,Pre-Pandemic (2019)
2019,209,Chelsea St at Saratoga St,42.379772,-71.027448,424,449,873,25,Pre-Pandemic (2019)
2019,21,Prudential Center - 101 Huntington Ave,42.34652003998412,-71.08065776545118,5665,5674,11339,9,Pre-Pandemic (2019)
2019,21,Prudential Center - Belvedere St,42.34652003998412,-71.08065776545118,8665,8719,17384,54,Pre-Pandemic (2019)
2019,210,Bennington St at Byron St,42.383532520117896,-71.01619094610214,497,494,991,-3,Pre-Pandemic (2019)
2019,211,Piers Park,42.3648929326648,-71.03497177362442,1790,1835,3625,45,Pre-Pandemic (2019)
2019,212,Maverick Square - Lewis Mall,42.36884408289835,-71.03977829217911,2644,2633,5277,-11,Pre-Pandemic (2019)
2019,213,East Boston Neighborhood Health Center - 20 Maverick Square,42.369536,-71.039431,1474,1444,2918,-30,Pre-Pandemic (2019)
2019,214,Airport T Stop - Bremen St at Brooks St,42.374079742097614,-71.03276392826956,1087,1099,2186,12,Pre-Pandemic (2019)
2019,214,Airport T Stop - Bremen St at Brooks St,42.37411261907485,-71.03277500727926,192,190,382,-2,Pre-Pandemic (2019)
2019,214,Airport T Stop - Bremen St at Brooks St,42.37533522545788,-71.03131584841321,582,574,1156,-8,Pre-Pandemic (2019)
2019,215,The Eddy - New St at Sumner St,42.370744,-71.044201,768,775,1543,7,Pre-Pandemic (2019)
2019,216,Glendon St at Condor St,42.38240377674137,-71.03024303913116,194,250,444,56,Pre-Pandemic (2019)
2019,217,Orient Heights T Stop - Bennington St at Saratoga St,42.386781,-71.006098,1001,1048,2049,47,Pre-Pandemic (2019)
2019,218,Watermark Seaport - Boston Wharf Rd at Seaport Blvd,42.351586001198456,-71.04569256305693,10814,11245,22059,431,Pre-Pandemic (2019)
2019,219,Boston East - 126 Border St,42.373312125824704,-71.0410200806291,1470,1465,2935,-5,Pre-Pandemic (2019)
2019,22,South Station - 700 Atlantic Ave,42.352175,-71.055547,44377,40811,85188,-3566,Pre-Pandemic (2019)
2019,221,Verizon Innovation Hub 10 Ware Street,42.37250864997261,-71.11305356025696,9198,9172,18370,-26,Pre-Pandemic (2019)
2019,222,Troy Boston,42.343749,-71.062256,5659,5689,11348,30,Pre-Pandemic (2019)
2019,224,Fresh Pond Reservation,42.38267827521855,-71.143478951426,2047,2087,4134,40,Pre-Pandemic (2019)
2019,225,Cambridge Dept. of Public Works -147 Hampshire St.,42.37119727759414,-71.09759867191315,11810,11341,23151,-469,Pre-Pandemic (2019)
2019,226,Commonwealth Ave At Babcock St,42.35154734791375,-71.12126246094704,8814,8523,17337,-291,Pre-Pandemic (2019)
2019,227,Silber Way,42.34949599514002,-71.10057592391968,13576,13723,27299,147,Pre-Pandemic (2019)
2019,228,One Memorial Drive,42.361619320766856,-71.0804355052096,7761,7667,15428,-94,Pre-Pandemic (2019)
2019,23,Boston City Hall - 28 State St,42.35892,-71.057629,20083,20325,40408,242,Pre-Pandemic (2019)
2019,232,Four Corners - 157 Washington St,42.304127927390155,-71.07929527759552,336,302,638,-34,Pre-Pandemic (2019)
2019,233,St Mary's,42.346197076555455,-71.10728681087494,9537,10008,19545,471,Pre-Pandemic (2019)
2019,234,Broadway at Central St,42.39517150121575,-71.09850591982195,3242,2144,5386,-1098,Pre-Pandemic (2019)
2019,235,East Somerville Library (Broadway and Illinois),42.3876281075134,-71.08318716287613,2949,2875,5824,-74,Pre-Pandemic (2019)
2019,236,Assembly Square T,42.39223284004627,-71.07746601104736,3115,4266,7381,1151,Pre-Pandemic (2019)
2019,239,Community Path at Cedar Street,42.39407223665884,-71.11133694648743,8477,6112,14589,-2365,Pre-Pandemic (2019)
2019,24,Seaport Square - Seaport Blvd at Northern Ave,42.35148193460858,-71.04436084628105,19164,18782,37946,-382,Pre-Pandemic (2019)
2019,25,South End Library - Tremont St at W Newton St,42.341332,-71.076847,9916,9166,19082,-750,Pre-Pandemic (2019)
2019,255,Park St at Norwell St,42.2944167,-71.0783056,72,92,164,20,Pre-Pandemic (2019)
2019,255,Park St at Norwell St,42.29442578670662,-71.07821760713703,74,112,186,38,Pre-Pandemic (2019)
2019,258,Gallivan Blvd at Adams St,42.28297567840305,-71.05466698296368,533,636,1169,103,Pre-Pandemic (2019)
2019,259,Washington St at Bradlee St,42.29916497936589,-71.07345871645519,253,207,460,-46,Pre-Pandemic (2019)
2019,26,Washington St at Waltham St,42.341522,-71.068922,4876,4762,9638,-114,Pre-Pandemic (2019)
2019,26,Washington St at Waltham St,42.34155984972459,-71.06886953115463,2505,2361,4866,-144,Pre-Pandemic (2019)
2019,26,Washington St at Waltham St,42.34157471873747,-71.06890439987183,4297,4128,8425,-169,Pre-Pandemic (2019)
2019,260,Fields Corner T Stop,42.2996667,-71.0605833,493,502,995,9,Pre-Pandemic (2019)
2019,260,Fields Corner T Stop,42.300664,-71.060295,548,601,1149,53,Pre-Pandemic (2019)
2019,27,Roxbury Crossing T Stop - Columbus Ave at Tremont St,42.331184,-71.095171,10981,10863,21844,-118,Pre-Pandemic (2019)
2019,271,Ashmont T Stop,42.2856944,-71.0641389,612,626,1238,14,Pre-Pandemic (2019)
2019,272,Shawmut T Stop,42.292917,-71.06575,436,398,834,-38,Pre-Pandemic (2019)
2019,273,Forest Hills,42.300923,-71.114249,3382,3415,6797,33,Pre-Pandemic (2019)
2019,279,Williams St at Washington St,42.306539,-71.107669,2343,2537,4880,194,Pre-Pandemic (2019)
2019,280,Main St at Baldwin St,42.380857,-71.070629,4125,3920,8045,-205,Pre-Pandemic (2019)
2019,282,Stony Brook T Stop,42.316966,-71.104374,4683,4743,9426,60,Pre-Pandemic (2019)
2019,29,Innovation Lab - 125 Western Ave at Batten Way,42.36314498882458,-71.12298574307715,1587,1645,3232,58,Pre-Pandemic (2019)
2019,29,Innovation Lab - 125 Western Ave at Batten Way,42.363732,-71.124565,3076,3126,6202,50,Pre-Pandemic (2019)
2019,296,Farragut Rd at E. 6th St,42.3334,-71.02495,3574,4259,7833,685,Pre-Pandemic (2019)
2019,3,Colleges of the Fenway - Fenway at Avenue Louis Pasteur,42.34011512249236,-71.10061883926392,9029,9092,18121,63,Pre-Pandemic (2019)
2019,30,Brigham Circle - Francis St at Huntington Ave,42.33462893055976,-71.10407917767589,8071,7984,16055,-87,Pre-Pandemic (2019)
2019,31,Seaport Hotel - Congress St at Seaport Ln,42.34881026188269,-71.04167744055303,6746,6568,13314,-178,Pre-Pandemic (2019)
2019,317,BCBS Quincy,42.27600498756665,-71.03924982267927,204,207,411,3,Pre-Pandemic (2019)
2019,318,Ames St at Broadway,42.3636929,-71.0875672,13094,13057,26151,-37,Pre-Pandemic (2019)
2019,319,84 Cambridgepark Dr,42.3936,-71.143941,1491,1494,2985,3,Pre-Pandemic (2019)
2019,327,Main St at Thompson Sq,42.374878467440965,-71.06383498767171,4818,4899,9717,81,Pre-Pandemic (2019)
2019,328,Grove St at Community Path,42.396386809455,-71.12011306006025,7505,10065,17570,2560,Pre-Pandemic (2019)
2019,329,Washington St at Myrtle St,42.380997997562794,-71.08721308428358,340,321,661,-19,Pre-Pandemic (2019)
2019,329,Washington St at Myrtle St,42.381699831636816,-71.08377588917392,1520,1392,2912,-128,Pre-Pandemic (2019)
2019,329,Washington St at Myrtle St,42.381706759208264,-71.0837718658604,1380,1312,2692,-68,Pre-Pandemic (2019)
2019,33,Kenmore Square,42.348706,-71.097009,17287,17474,34761,187,Pre-Pandemic (2019)
2019,330,30 Dane St,42.38100143038052,-71.10402522613185,9217,9361,18578,144,Pre-Pandemic (2019)
2019,330,30 Dane St.,42.38100143038052,-71.10402522613185,308,310,618,2,Pre-Pandemic (2019)
2019,331,Huntington Ave at Mass Art,42.336585554561154,-71.0988699646623,6998,7049,14047,51,Pre-Pandemic (2019)
2019,332,Harvard Ave at Brainerd Rd,42.34953016890375,-71.13022770741735,8671,8384,17055,-287,Pre-Pandemic (2019)
2019,333,699 Mt Auburn St,42.37500235137831,-71.14871613699506,3976,4204,8180,228,Pre-Pandemic (2019)
2019,334,Mass Ave at Hadley/Walden,42.39120971915856,-71.12260755160605,4096,4073,8169,-23,Pre-Pandemic (2019)
2019,335,Harvard St at Greene-Rose Heritage Park,42.36599432867437,-71.09522221614498,14470,14271,28741,-199,Pre-Pandemic (2019)
2019,336,Mattapan T Stop,42.267902,-71.093641,453,518,971,65,Pre-Pandemic (2019)
2019,337,Roslindale Village - South St,42.287072,-71.127754,854,957,1811,103,Pre-Pandemic (2019)
2019,338,Commonwealth Ave at Kelton St,42.348358628170445,-71.13997217276847,6428,5389,11817,-1039,Pre-Pandemic (2019)
2019,339,Archdale Rd at Washington St,42.29266592872725,-71.12119538714069,813,981,1794,168,Pre-Pandemic (2019)
2019,340,Blue Hill Ave at Almont St,42.27462067181224,-71.09372552493369,136,177,313,41,Pre-Pandemic (2019)
2019,341,Roslindale Village - Washington St,42.28630716010807,-71.12820532182013,617,772,1389,155,Pre-Pandemic (2019)
2019,342,Boylston St at Jersey St,42.344650628878306,-71.09732501226972,24949,25459,50408,510,Pre-Pandemic (2019)
2019,343,Morton St T,42.280725142920296,-71.08617242434775,132,137,269,5,Pre-Pandemic (2019)
2019,344,Commonwealth Ave at Chiswick Rd,42.34024644768889,-71.15168806174552,2185,1863,4048,-322,Pre-Pandemic (2019)
2019,345,Park Plaza at Charles St,42.351828068920675,-71.06781138111728,340,350,690,10,Pre-Pandemic (2019)
2019,345,Park Plaza at Charles St S.,42.351828068920675,-71.06781138111728,9284,9894,19178,610,Pre-Pandemic (2019)
2019,346,Cleveland Circle,42.335543083570826,-71.15061519672052,2789,2734,5523,-55,Pre-Pandemic (2019)
2019,347,Thetford Ave at Norfolk St,42.286212948246096,-71.07942931372236,130,150,280,20,Pre-Pandemic (2019)
2019,348,Talbot Ave At Blue Hill Ave,42.2945833,-71.087111,380,439,819,59,Pre-Pandemic (2019)
2019,349,Washington St at Talbot Ave,42.290333,-71.071806,437,370,807,-67,Pre-Pandemic (2019)
2019,35,Arch St at Franklin St,42.35533501941256,-71.0582291708306,10414,12107,22521,1693,Pre-Pandemic (2019)
2019,350,Codman Square Library,42.2873611,-71.071111,622,569,1191,-53,Pre-Pandemic (2019)
2019,351,Faneuil St at Arlington St,42.35276620545606,-71.15988485533308,1476,1475,2951,-1,Pre-Pandemic (2019)
2019,352,Ring Rd,42.348278385426255,-71.08044855314802,9993,10019,20012,26,Pre-Pandemic (2019)
2019,353,Mattapan Library,42.2773889,-71.09325,121,167,288,46,Pre-Pandemic (2019)
2019,354,Washington St at Egremont Rd,42.34286835071959,-71.14127840855872,3874,2460,6334,-1414,Pre-Pandemic (2019)
2019,355,Bennington St at Constitution Beach,42.385223935870535,-71.01063068965232,637,682,1319,45,Pre-Pandemic (2019)
2019,356,Charlestown Navy Yard,42.374124549426526,-71.05481199938367,10871,10437,21308,-434,Pre-Pandemic (2019)
2019,357,Centre St at Seaverns Ave,42.3121203,-71.1142981,3122,3147,6269,25,Pre-Pandemic (2019)
2019,358,Medford St at Charlestown BCYF,42.380429474494896,-71.06055721676967,3397,3317,6714,-80,Pre-Pandemic (2019)
2019,359,One Brigham Circle,42.33392270136997,-71.10446508982932,6521,6122,12643,-399,Pre-Pandemic (2019)
2019,36,Copley Square - Dartmouth St at Boylston St,42.34992828230057,-71.07739206866427,17461,19462,36923,2001,Pre-Pandemic (2019)
2019,36,Copley Square - Dartmouth St at Boylston St,42.34993463611888,-71.07738554477692,1852,2282,4134,430,Pre-Pandemic (2019)
2019,36,Copley Square - Dartmouth St at Boylston St,42.3521261226759,-71.07599601185939,1363,1565,2928,202,Pre-Pandemic (2019)
2019,360,Bartlett St at John Elliot Sq,42.3294633,-71.0901582,2504,2242,4746,-262,Pre-Pandemic (2019)
2019,361,Deerfield St at Commonwealth Ave,42.34924376955301,-71.09728209692548,17280,18689,35969,1409,Pre-Pandemic (2019)
2019,362,Columbia Rd at Tierney Community Center,42.33023070528729,-71.05060093123029,3589,4166,7755,577,Pre-Pandemic (2019)
2019,363,Harrison Ave at Mullins Way,42.34521562115022,-71.0638403149278,9219,9486,18705,267,Pre-Pandemic (2019)
2019,364,Tremont St at Northampton St,42.33889559644165,-71.08149975611013,8492,8039,16531,-453,Pre-Pandemic (2019)
2019,365,Harrison Ave at Bennet St,42.34942609892521,-71.06209959843909,5191,5320,10511,129,Pre-Pandemic (2019)
2019,366,Broadway T Stop,42.34278116224413,-71.05747275072645,6306,6355,12661,49,Pre-Pandemic (2019)
2019,367,Vassal Lane at Tobin/VLUS,42.3839322489048,-71.13961271959852,1931,1974,3905,43,Pre-Pandemic (2019)
2019,368,Blue Hill Ave at Southwood St,42.31786020589987,-71.07798628527235,565,520,1085,-45,Pre-Pandemic (2019)
2019,369,Boston Public Market,42.36254854409333,-71.0573735833168,18936,19017,37953,81,Pre-Pandemic (2019)
2019,37,New Balance - 20 Guest St,42.35732921867706,-71.14673539996147,3356,3437,6793,81,Pre-Pandemic (2019)
2019,370,Dartmouth St at Newbury St,42.35096144421219,-71.07782810926437,12669,13855,26524,1186,Pre-Pandemic (2019)
2019,371,700 Huron Ave,42.380788172914286,-71.15412890911102,1923,1913,3836,-10,Pre-Pandemic (2019)
2019,372,Boylston St at Exeter St,42.349589423682445,-71.0794677917329,11278,11948,23226,670,Pre-Pandemic (2019)
2019,373,Belgrade Ave at Walworth St,42.28634589486312,-71.13672129828046,430,434,864,4,Pre-Pandemic (2019)
2019,374,Tremont St at Hamilton Pl,42.35668334969929,-71.06166645884514,14075,13851,27926,-224,Pre-Pandemic (2019)
2019,374,Tremont St at Hamilton Place,42.35668334969929,-71.06166645884514,389,360,749,-29,Pre-Pandemic (2019)
2019,376,Honan Library,42.36027370454934,-71.12852452327388,4691,4690,9381,-1,Pre-Pandemic (2019)
2019,377,Perry Park,42.37927324600841,-71.10341902831351,6364,5494,11858,-870,Pre-Pandemic (2019)
2019,378,191 Beacon St,42.38032335045416,-71.10878612855231,5939,5774,11713,-165,Pre-Pandemic (2019)
2019,379,Tremont St at W. Dedham St,42.34254913737952,-71.07421449387857,6722,6592,13314,-130,Pre-Pandemic (2019)
2019,380,Mass Ave at Albany St,42.36135837662249,-71.09670273977825,20238,20166,40404,-72,Pre-Pandemic (2019)
2019,381,Inman Square at Springfield St.,42.37438408515815,-71.1001574621514,13992,12507,26499,-1485,Pre-Pandemic (2019)
2019,384,Clarendon St at Commonwealth Ave,42.35219035145307,-71.0760041699723,256,262,518,6,Pre-Pandemic (2019)
2019,384,Clarendon St at Newbury St,42.35155308466532,-71.0756903143556,8288,8663,16951,375,Pre-Pandemic (2019)
2019,385,Albany St at E. Brookline St,42.33664795427071,-71.0689445958451,4233,4240,8473,7,Pre-Pandemic (2019)
2019,386,Sennott Park  Broadway at Norfolk Street,42.36860524248197,-71.09930185605663,5264,4639,9903,-625,Pre-Pandemic (2019)
2019,386,Sennott Park Broadway at Norfolk Street,42.36860524248197,-71.09930185605663,4384,3848,8232,-536,Pre-Pandemic (2019)
2019,387,7 Acre Park,42.41143222973408,-71.06823265090497,189,238,427,49,Pre-Pandemic (2019)
2019,387,Norman St at Kelvin St,42.40581171700586,-71.06708850720679,90,105,195,15,Pre-Pandemic (2019)
2019,388,Main Street at Carter Street,42.40413,-71.0613,226,259,485,33,Pre-Pandemic (2019)
2019,388,Main Street at Carter Street,42.406151572663504,-71.0604074504954,253,263,516,10,Pre-Pandemic (2019)
2019,389,Everett Square (Broadway at Chelsea St),42.40725945172653,-71.05546381333625,628,623,1251,-5,Pre-Pandemic (2019)
2019,39,Washington St at Rutland St,42.338514601785995,-71.07404083013535,20037,20523,40560,486,Pre-Pandemic (2019)
2019,390,Broadway at Lynde St,42.39648358247693,-71.06546759905541,1647,1636,3283,-11,Pre-Pandemic (2019)
2019,391,Encore,42.39329263225162,-71.0724475979805,651,647,1298,-4,Pre-Pandemic (2019)
2019,392,Glendale Square (Ferry St at Broadway),42.41427294293992,-71.04479655659816,114,177,291,63,Pre-Pandemic (2019)
2019,392,Glendale Square (Ferry St at Broadway),42.41480160999569,-71.04772560316633,89,111,200,22,Pre-Pandemic (2019)
2019,393,Ferry St at Pleasantview Ave,42.40914877754532,-71.04597684005057,67,78,145,11,Pre-Pandemic (2019)
2019,393,Swan St. Park,42.412504507772105,-71.05842225271772,130,153,283,23,Pre-Pandemic (2019)
2019,394,Broadway at Maple St,42.410346909767846,-71.05260457852637,313,208,521,-105,Pre-Pandemic (2019)
2019,395,Chelsea St at Vine St,42.40328056972533,-71.04762639859473,223,249,472,26,Pre-Pandemic (2019)
2019,396,Main St at Beacon St,42.41072713868097,-71.06266822675025,181,196,377,15,Pre-Pandemic (2019)
2019,396,Wasgatt Playground,42.4093300667225,-71.06381878293178,266,297,563,31,Pre-Pandemic (2019)
2019,397,Broadway at Beacham St,42.39836059620832,-71.06373842814719,1044,1041,2085,-3,Pre-Pandemic (2019)
2019,398,75 Binney St,42.36550728505653,-71.0801375997653,4828,4791,9619,-37,Pre-Pandemic (2019)
2019,399,Shawmut Ave at Oak St W,42.34854543411198,-71.06559185315746,1569,1540,3109,-29,Pre-Pandemic (2019)
2019,4,Tremont St at E Berkeley St,42.345392,-71.069616,11702,11443,23145,-259,Pre-Pandemic (2019)
2019,40,Lewis Wharf at Atlantic Ave,42.363871,-71.050877,18119,18656,36775,537,Pre-Pandemic (2019)
2019,400,Big Papi Station,42.34734473177431,-71.1001680795016,1823,1827,3650,4,Pre-Pandemic (2019)
2019,400,Lansdowne T Stop,42.34734473177431,-71.1001680795016,1421,1449,2870,28,Pre-Pandemic (2019)
2019,401,High St at Cypress St,42.32538435700882,-71.12177595532557,805,749,1554,-56,Pre-Pandemic (2019)
2019,402,Washington St at Griggs Rd,42.338334237199014,-71.13050930220197,1904,1286,3190,-618,Pre-Pandemic (2019)
2019,403,Marion St at Harvard St,42.33978052668946,-71.12133350232398,3171,3062,6233,-109,Pre-Pandemic (2019)
2019,404,Mass Ave T Station,42.34135615767354,-71.08336953450817,4235,4234,8469,-1,Pre-Pandemic (2019)
2019,405,Sydney St at Carson St,42.32039374304257,-71.05355408051764,719,793,1512,74,Pre-Pandemic (2019)
2019,406,Somerville City Hall Annex,42.39189811591863,-71.09745375830244,1128,676,1804,-452,Pre-Pandemic (2019)
2019,407,Craigie at Summer St,42.383634022742875,-71.10855814078604,468,199,667,-269,Pre-Pandemic (2019)
2019,407,Craigie at Summer St,42.38828872616418,-71.11071459967206,905,279,1184,-626,Pre-Pandemic (2019)
2019,407,Craigie at Summer St,42.388305537643994,-71.11067976811682,389,155,544,-234,Pre-Pandemic (2019)
2019,408,Edgerly Education Center,42.38717463348314,-71.08714388528824,1667,1526,3193,-141,Pre-Pandemic (2019)
2019,409,Elm St at White St,42.38952436305763,-71.11694140364307,3442,2961,6403,-481,Pre-Pandemic (2019)
2019,41,Packard's Corner - Commonwealth Ave at Brighton Ave,42.352261,-71.123831,18010,16588,34598,-1422,Pre-Pandemic (2019)
2019,410,Adams St at Lonsdale St,42.291679428741226,-71.05726346409938,188,206,394,18,Pre-Pandemic (2019)
2019,411,Dorchester Ave at King St,42.29175621632091,-71.0625918023743,328,305,633,-23,Pre-Pandemic (2019)
2019,412,Washington St at Peters Park,42.34303291130257,-71.06688730436872,3249,3192,6441,-57,Pre-Pandemic (2019)
2019,413,Kennedy-Longfellow School 158 Spring St,42.36955297756508,-71.08579014980933,4512,4466,8978,-46,Pre-Pandemic (2019)
2019,414,Discovery Park - 30 Acorn Park Drive,42.39790817368333,-71.14797130814623,574,597,1171,23,Pre-Pandemic (2019)
2019,415,Stuart St at Berkeley St,42.34954403114251,-71.0724207387284,3945,3922,7867,-23,Pre-Pandemic (2019)
2019,416,Blossom St at Charles St,42.36435589027983,-71.0695936904267,2849,2837,5686,-12,Pre-Pandemic (2019)
2019,417,Columbus Ave at W. Canton St,42.34474224772802,-71.07648162175792,2676,2614,5290,-62,Pre-Pandemic (2019)
2019,419,Central Square East Boston,42.37544912547037,-71.03918548682486,423,437,860,14,Pre-Pandemic (2019)
2019,42,Boylston St at Arlington St,42.35204262229712,-71.07057809829712,6614,7233,13847,619,Pre-Pandemic (2019)
2019,42,Boylston St at Arlington St,42.352054773220544,-71.07048687257702,4410,4857,9267,447,Pre-Pandemic (2019)
2019,42,Boylston St at Arlington St,42.35256693391622,-71.06770543386118,1138,1330,2468,192,Pre-Pandemic (2019)
2019,42,Boylston St at Arlington St,42.352587795070214,-71.06764905172895,1947,2512,4459,565,Pre-Pandemic (2019)
2019,420,Charles St at Pinckney St,42.35872530462163,-71.07079532006537,2915,2866,5781,-49,Pre-Pandemic (2019)
2019,421,Northbourne Rd at Hyde Park Ave,42.29118034790426,-71.117736660035,115,132,247,17,Pre-Pandemic (2019)
2019,422,Cummins at American Legion,42.278811581565975,-71.11687703062671,67,104,171,37,Pre-Pandemic (2019)
2019,423,Mt. Hope St at Hyde Park Ave,42.28484472443536,-71.11874517062459,67,117,184,50,Pre-Pandemic (2019)
2019,424,Jamaica St at South St,42.3060456272408,-71.11570891001975,405,429,834,24,Pre-Pandemic (2019)
2019,425,The Dimock Center,42.3193094317828,-71.09639923859504,290,213,503,-77,Pre-Pandemic (2019)
2019,426,Surface Rd at Summer St,42.35294569782581,-71.05656400803126,3471,3742,7213,271,Pre-Pandemic (2019)
2019,427,Washington St at Denton Terr,42.280728147169015,-71.13423757273267,125,128,253,3,Pre-Pandemic (2019)
2019,428,Western Ave at Richardson St,42.36178741066187,-71.14393111327445,856,907,1763,51,Pre-Pandemic (2019)
2019,43,Rowes Wharf at Atlantic Ave,42.357143,-71.050699,12936,13129,26065,193,Pre-Pandemic (2019)
2019,431,Washington St at Fuller St,42.281986277339136,-71.07147924620222,50,54,104,4,Pre-Pandemic (2019)
2019,432,Centre St at W. Roxbury Post Office,42.286331991127746,-71.15344755369732,96,97,193,1,Pre-Pandemic (2019)
2019,433,Centre St at Parkway YMCA,42.28277901074054,-71.15728851416861,92,94,186,2,Pre-Pandemic (2019)
2019,434,Spring St at Powell St,42.277484442008216,-71.16341467955863,48,59,107,11,Pre-Pandemic (2019)
2019,435,Central Ave at River St,42.27094707029229,-71.07337901405117,53,60,113,7,Pre-Pandemic (2019)
2019,436,Maverick St at Massport Path,42.36774122306014,-71.0333597474255,155,157,312,2,Pre-Pandemic (2019)
2019,437,Berkshire Street at Cambridge Street,42.37207657915397,-71.08995433905875,3462,3286,6748,-176,Pre-Pandemic (2019)
2019,44,Congress St at Boston City Hall,42.36041774637169,-71.05752243543975,539,589,1128,50,Pre-Pandemic (2019)
2019,44,Congress St at North St,42.36041774637169,-71.05752243543975,2113,2201,4314,88,Pre-Pandemic (2019)
2019,440,Boston Landing,42.35656092308941,-71.14167537549292,320,325,645,5,Pre-Pandemic (2019)
2019,441,Sullivan Square,42.38445225635843,-71.07514854529654,320,315,635,-5,Pre-Pandemic (2019)
2019,442,Hyde Park Ave at Walk Hill St,42.29606704649873,-71.11601199963843,126,134,260,8,Pre-Pandemic (2019)
2019,443,Whittier St Health Center,42.332862884862635,-71.09218861916816,202,229,431,27,Pre-Pandemic (2019)
2019,445,Geiger Gibson Community Health Center,42.31886468217537,-71.04536797860419,117,116,233,-1,Pre-Pandemic (2019)
2019,446,700 Commonwealth Ave.,42.34960945333059,-71.10391523698127,1577,1601,3178,24,Pre-Pandemic (2019)
2019,46,Christian Science Plaza - Massachusetts Ave at Westland Ave,42.3436658245146,-71.08582377433777,25560,26179,51739,619,Pre-Pandemic (2019)
2019,47,Cross St at Hanover St,42.362811,-71.056067,7281,7488,14769,207,Pre-Pandemic (2019)
2019,48,Post Office Square,42.35585435522005,-71.05459745998814,5002,6546,11548,1544,Pre-Pandemic (2019)
2019,48,Post Office Square - Pearl St at Milk St,42.356755,-71.055407,1531,1634,3165,103,Pre-Pandemic (2019)
2019,49,Stuart St at Charles St,42.351146,-71.066289,7455,7702,15157,247,Pre-Pandemic (2019)
2019,5,Northeastern University - North Parking Lot,42.341814,-71.090179,11277,11405,22682,128,Pre-Pandemic (2019)
2019,50,Boylston St at Berkeley St,42.3511419825475,-71.07329249382019,8006,8624,16630,618,Pre-Pandemic (2019)
2019,51,Washington St at Lenox St,42.3350989929096,-71.07903778553009,5359,5396,10755,37,Pre-Pandemic (2019)
2019,52,Newbury St at Hereford St,42.348717,-71.085954,19132,19066,38198,-66,Pre-Pandemic (2019)
2019,53,Beacon St at Massachusetts Ave,42.35082680669095,-71.0898108780384,22543,22208,44751,-335,Pre-Pandemic (2019)
2019,54,Tremont St at West St,42.354979,-71.063348,13451,13547,26998,96,Pre-Pandemic (2019)
2019,55,Boylston St at Massachusetts Ave,42.347265,-71.088088,10945,11035,21980,90,Pre-Pandemic (2019)
2019,55,Boylston St at Massachusetts Ave,42.34740620525209,-71.08678414955648,8396,8445,16841,49,Pre-Pandemic (2019)
2019,56,Dudley Square - Bolling Building,42.329842993518085,-71.08386572459494,1089,1115,2204,26,Pre-Pandemic (2019)
2019,56,Dudley Square - Dudley St at Warren St,42.32854046293402,-71.08416482806204,684,666,1350,-18,Pre-Pandemic (2019)
2019,56,Dudley Square - Dudley St at Warren St,42.329842993518085,-71.08386572459494,1024,1018,2042,-6,Pre-Pandemic (2019)
2019,57,Columbus Ave at Massachusetts Ave,42.340542615516355,-71.08138847914233,6703,6693,13396,-10,Pre-Pandemic (2019)
2019,57,Massachusetts Ave at Columbus Ave,42.33949453726166,-71.0802078062261,4085,4183,8268,98,Pre-Pandemic (2019)
2019,57,Massachusetts Ave at Columbus Ave,42.340542615516355,-71.08138847914233,399,380,779,-19,Pre-Pandemic (2019)
2019,58,Mugar Way at Beacon St,42.35553628489709,-71.07286870479584,19577,19824,39401,247,Pre-Pandemic (2019)
2019,59,Chinatown Gate Plaza,42.351356,-71.059367,11772,12327,24099,555,Pre-Pandemic (2019)
2019,6,Cambridge St at Joy St,42.36121165307985,-71.06530619789737,13308,13222,26530,-86,Pre-Pandemic (2019)
2019,6,Cambridge St at Joy St,42.36125721646537,-71.06528744101524,7621,7657,15278,36,Pre-Pandemic (2019)
2019,60,Charles Circle - Charles St at Cambridge St,42.36018499796463,-71.07086597688976,6406,6406,12812,0,Pre-Pandemic (2019)
2019,60,Charles Circle - Charles St at Cambridge St,42.36079296858265,-71.07118962337152,14582,14592,29174,10,Pre-Pandemic (2019)
2019,61,Boylston St at Fairfield St,42.348762,-71.082383,18882,18956,37838,74,Pre-Pandemic (2019)
2019,63,Dorchester Ave at Gillette Park,42.34404051001635,-71.05737626552582,2021,1977,3998,-44,Pre-Pandemic (2019)
2019,64,Congress St at Sleeper St,42.351004495946704,-71.04930013418198,8214,9242,17456,1028,Pre-Pandemic (2019)
2019,65,Boston Convention and Exhibition Center - Summer St at West Side Dr,42.347763454147454,-71.0453599691391,3981,3764,7745,-217,Pre-Pandemic (2019)
2019,66,Allston Green District - Griggs St at Commonwealth Ave,42.34922469338298,-71.13275302578586,5317,4208,9525,-1109,Pre-Pandemic (2019)
2019,66,Commonwealth Ave at Griggs St,42.34922469338298,-71.13275302578586,3476,2902,6378,-574,Pre-Pandemic (2019)
2019,67,MIT at Mass Ave / Amherst St,42.3581,-71.093198,61036,56976,118012,-4060,Pre-Pandemic (2019)
2019,68,Central Square at Mass Ave / Essex St,42.36507,-71.1031,50984,51427,102411,443,Pre-Pandemic (2019)
2019,69,Coolidge Corner - Beacon St at Centre St,42.341598,-71.123338,15708,16096,31804,388,Pre-Pandemic (2019)
2019,7,Fan Pier,42.3533905070523,-71.04457139968872,5585,5589,11174,4,Pre-Pandemic (2019)
2019,70,Harvard Kennedy School at Bennett St / Eliot St,42.3722168027866,-71.12188071012497,14661,16877,31538,2216,Pre-Pandemic (2019)
2019,71,Conway Park - Somerville Avenue,42.383405,-71.107593,9536,8999,18535,-537,Pre-Pandemic (2019)
2019,72,One Broadway / Kendall Sq at Main St / 3rd St,42.36224178650923,-71.0831107199192,6795,6700,13495,-95,Pre-Pandemic (2019)
2019,73,Harvard Square at Brattle St / Eliot St,42.373231,-71.120886,15198,15411,30609,213,Pre-Pandemic (2019)
2019,74,Harvard Square at Mass Ave/ Dunster,42.373268,-71.118579,35073,35977,71050,904,Pre-Pandemic (2019)
2019,75,Lafayette Square at Mass Ave / Main St / Columbia St,42.36346469304347,-71.10057324171066,13155,13158,26313,3,Pre-Pandemic (2019)
2019,76,Central Sq Post Office / Cambridge City Hall at Mass Ave / Pleasant St,42.366426,-71.105495,23454,23438,46892,-16,Pre-Pandemic (2019)
2019,77,Somerville City Hall,42.386844,-71.09812,5577,4409,9986,-1168,Pre-Pandemic (2019)
2019,78,Union Square - Somerville,42.379595255143805,-71.09530799109052,2144,2387,4531,243,Pre-Pandemic (2019)
2019,78,Union Square - Somerville,42.37965809715277,-71.09394280244487,4100,4286,8386,186,Pre-Pandemic (2019)
2019,78,Union Square - Somerville,42.37967148149253,-71.0954931006745,1349,1332,2681,-17,Pre-Pandemic (2019)
2019,78,Union Square - Somerville,42.37967448103421,-71.09391324240278,4196,4825,9021,629,Pre-Pandemic (2019)
2019,79,Beacon St at Washington / Kirkland,42.37842,-71.105668,9139,8808,17947,-331,Pre-Pandemic (2019)
2019,8,Union Square - Brighton Ave at Cambridge St,42.353334,-71.137313,8702,8658,17360,-44,Pre-Pandemic (2019)
2019,80,MIT Stata Center at Vassar St / Main St,42.3621312344991,-71.09115600585936,47188,41815,89003,-5373,Pre-Pandemic (2019)
2019,81,Chinatown T Stop,42.352409,-71.062679,15716,15959,31675,243,Pre-Pandemic (2019)
2019,82,Beacon St at Tappan St,42.33826680058037,-71.13894682028331,4941,3816,8757,-1125,Pre-Pandemic (2019)
2019,84,CambridgeSide Galleria - CambridgeSide PL at Land Blvd,42.366981,-71.076472,13527,14113,27640,586,Pre-Pandemic (2019)
2019,85,Spaulding Rehabilitation Hospital - Charlestown Navy Yard,42.378338,-71.048927,6348,7576,13924,1228,Pre-Pandemic (2019)
2019,86,Brookline Village - Pearl Street at MBTA,42.332799,-71.116205,601,613,1214,12,Pre-Pandemic (2019)
2019,86,Brookline Village - Pearl Street at MBTA,42.3329989199507,-71.11634425762531,1030,1171,2201,141,Pre-Pandemic (2019)
2019,86,Brookline Village - Station Street at MBTA,42.33274392304887,-71.11626680949485,2746,3145,5891,399,Pre-Pandemic (2019)
2019,86,Brookline Village - Station Street at MBTA,42.3329989199507,-71.11634425762531,2041,2195,4236,154,Pre-Pandemic (2019)
2019,87,Harvard University Housing - 115 Putnam Ave at Peabody Terrace,42.366621,-71.114214,11311,11156,22467,-155,Pre-Pandemic (2019)
2019,88,Inman Square at Vellucci Plaza / Hampshire St,42.374035,-71.101427,497,413,910,-84,Pre-Pandemic (2019)
2019,89,Harvard Law School at Mass Ave / Jarvis St,42.379011,-71.119945,10534,10736,21270,202,Pre-Pandemic (2019)
2019,9,Commonwealth Ave at Agganis Way,42.35169201885973,-71.11903488636017,20401,20780,41181,379,Pre-Pandemic (2019)
2019,90,Lechmere Station at Cambridge St / First St,42.370677,-71.076529,19781,20032,39813,251,Pre-Pandemic (2019)
2019,91,One Kendall Square at Hampshire St / Portland St,42.366277,-71.09169,24960,23189,48149,-1771,Pre-Pandemic (2019)
2019,92,University of Massachusetts Boston - Campus Center,42.31218918475612,-71.03648586203235,1600,1743,3343,143,Pre-Pandemic (2019)
2019,92,University of Massachusetts Boston - Integrated Sciences Complex,42.313917,-71.04025,338,349,687,11,Pre-Pandemic (2019)
2019,92,University of Massachusetts Boston - Integrated Sciences Complex,42.314507,-71.041269,76,68,144,-8,Pre-Pandemic (2019)
2019,93,JFK/UMass T Stop,42.32033973515723,-71.05118036270142,3274,3317,6591,43,Pre-Pandemic (2019)
2019,94,Main St at Austin St,42.375603,-71.064608,6876,6463,13339,-413,Pre-Pandemic (2019)
2019,95,Cambridge St - at Columbia St / Webster Ave,42.372969,-71.094445,13323,12843,26166,-480,Pre-Pandemic (2019)
2019,96,Cambridge Main Library at Broadway / Trowbridge St,42.373379,-71.111075,12968,13055,26023,87,Pre-Pandemic (2019)
2019,97,Harvard University River Houses at DeWolfe St / Cowperthwaite St,42.36912158206552,-71.1163867230971,4956,5017,9973,61,Pre-Pandemic (2019)
2019,97,Harvard University River Houses at DeWolfe St / Cowperthwaite St,42.36919031768079,-71.11714124679565,8978,9182,18160,204,Pre-Pandemic (2019)
2019,98,Warren St at Chelsea St,42.371848,-71.060292,16899,15348,32247,-1551,Pre-Pandemic (2019)
2019,99,Wilson Square,42.385582,-71.113341,1837,1836,3673,-1,Pre-Pandemic (2019)
2019,99,Wilson Square,42.38567578752914,-71.11412136298895,2276,2087,4363,-189,Pre-Pandemic (2019)
2022,1,18 Dorrance Warehouse,42.387151,-71.075978,37,215,252,178,Post-Pandemic (2022)
2022,10,B.U. Central - 725 Comm. Ave.,42.350406,-71.108279,19326,19538,38864,212,Post-Pandemic (2022)
2022,100,Davis Square,42.396969,-71.123024,18455,19666,38121,1211,Post-Pandemic (2022)
2022,101,Ball Sq,42.39920335720869,-71.11102235516228,3308,3218,6526,-90,Post-Pandemic (2022)
2022,102,Powder House Circle - Nathan Tufts Park,42.400877,-71.116772,5189,5121,10310,-68,Post-Pandemic (2022)
2022,103,JFK Crossing at Harvard St. / Thorndike St.,42.346551241753566,-71.1283321143128,4781,4403,9184,-378,Post-Pandemic (2022)
2022,104,Harvard University Radcliffe Quadrangle at Shepard St / Garden St,42.380287,-71.125107,17125,17156,34281,31,Post-Pandemic (2022)
2022,105,Lower Cambridgeport at Magazine St / Riverside Rd,42.357218503176526,-71.1138716340065,23282,23262,46544,-20,Post-Pandemic (2022)
2022,106,Dudley Town Common - Mt Pleasant Ave at Blue Hill Ave,42.325333,-71.075354,1472,1471,2943,-1,Post-Pandemic (2022)
2022,107,Ames St at Main St,42.3625,-71.08822,37569,43088,80657,5519,Post-Pandemic (2022)
2022,108,Harvard University / SEAS Cruft-Pierce Halls at 29 Oxford St,42.377945,-71.116865,16677,16773,33450,96,Post-Pandemic (2022)
2022,109,West End Park,42.36590788445084,-71.06446668505669,4793,3649,8442,-1144,Post-Pandemic (2022)
2022,11,Longwood Ave at Binney St,42.338629,-71.1065,22424,25431,47855,3007,Post-Pandemic (2022)
2022,110,Harvard University Gund Hall at Quincy St / Kirkland St,42.376369,-71.114025,17612,18083,35695,471,Post-Pandemic (2022)
2022,111,Packard Ave at Powderhouse Blvd,42.40449,-71.123413,5449,5356,10805,-93,Post-Pandemic (2022)
2022,112,Clarendon Hill at Broadway,42.406302,-71.132446,2318,2383,4701,65,Post-Pandemic (2022)
2022,113,Andrew T Stop - Dorchester Ave at Dexter St,42.330473650415165,-71.05701684951782,699,837,1536,138,Post-Pandemic (2022)
2022,113,Andrew T Stop - Dorchester Ave at Dexter St,42.33073332585453,-71.05699850837482,2460,2974,5434,514,Post-Pandemic (2022)
2022,114,Teele Square,42.40087950159558,-71.12590793383788,1003,849,1852,-154,Post-Pandemic (2022)
2022,114,Teele Square,42.40231703379005,-71.12671129423688,2092,1925,4017,-167,Post-Pandemic (2022)
2022,115,Porter Square Station,42.387995,-71.119084,17346,18096,35442,750,Post-Pandemic (2022)
2022,116,359 Broadway - Broadway at Fayette Street,42.370803,-71.104412,18205,15661,33866,-2544,Post-Pandemic (2022)
2022,117,Binney St / Sixth St,42.36608797388682,-71.08633603909765,7682,7758,15440,76,Post-Pandemic (2022)
2022,118,Linear Park - Mass. Ave. at Cameron Ave. ,42.397828,-71.130516,8821,8723,17544,-98,Post-Pandemic (2022)
2022,119,South Boston Library - 646 E Broadway,42.335741,-71.03877,10438,10739,21177,301,Post-Pandemic (2022)
2022,12,Ruggles T Stop - Columbus Ave at Melnea Cass Blvd,42.33624444796878,-71.08798563480377,26725,27565,54290,840,Post-Pandemic (2022)
2022,120,Beacon St at Charles St,42.356052,-71.069849,17251,17625,34876,374,Post-Pandemic (2022)
2022,121,W Broadway at Dorchester St,42.335958979433094,-71.04622899561036,10126,9729,19855,-397,Post-Pandemic (2022)
2022,122,Burlington Ave at Brookline Ave,42.345733,-71.100694,6000,6433,12433,433,Post-Pandemic (2022)
2022,124,Curtis Hall - South St at Centre St,42.309054,-71.11543,3223,3350,6573,127,Post-Pandemic (2022)
2022,125,Hyde Square - Barbara St at Centre St,42.32176525723952,-71.10984160567114,8269,7464,15733,-805,Post-Pandemic (2022)
2022,126,Egleston Square - Atherton St at Washington St,42.315692,-71.098634,1520,1415,2935,-105,Post-Pandemic (2022)
2022,128,E Cottage St at Columbia Rd,42.320561,-71.06198,2742,2954,5696,212,Post-Pandemic (2022)
2022,129,Hayes Square - Vine St at Moulton St,42.377022,-71.056605,2679,2498,5177,-181,Post-Pandemic (2022)
2022,13,Boston Medical Center - E Concord St at Harrison Ave,42.33639915372498,-71.07306711393903,13222,13487,26709,265,Post-Pandemic (2022)
2022,130,Uphams Corner,42.31727474327453,-71.06537003967787,1107,1200,2307,93,Post-Pandemic (2022)
2022,131,Jackson Square T Stop,42.32293117195949,-71.10014140605927,8650,8995,17645,345,Post-Pandemic (2022)
2022,133,Green Street T Stop - Green St at Amory St,42.310579,-71.107341,5626,5726,11352,100,Post-Pandemic (2022)
2022,135,ID Building East,42.344827,-71.028664,2925,2994,5919,69,Post-Pandemic (2022)
2022,136,ID Building West,42.344796,-71.031614,4912,5098,10010,186,Post-Pandemic (2022)
2022,137,Magoun Square at Trum Field,42.39778339961249,-71.10594004465383,4202,4005,8207,-197,Post-Pandemic (2022)
2022,138,Newmarket Square T Stop - Massachusetts Ave at Newmarket Square,42.326599,-71.066498,4492,5346,9838,854,Post-Pandemic (2022)
2022,139,Dana Park,42.36178043960605,-71.10809952020645,15471,14532,30003,-939,Post-Pandemic (2022)
2022,14,HMS/HSPH - Avenue Louis Pasteur at Longwood Ave,42.3374174845973,-71.10286116600037,14323,15211,29534,888,Post-Pandemic (2022)
2022,140,Danehy Park,42.388966,-71.132788,3390,3604,6994,214,Post-Pandemic (2022)
2022,141,Kendall Street,42.36356015842989,-71.08216792345047,8127,8154,16281,27,Post-Pandemic (2022)
2022,142,Alewife Station at Russell Field,42.396105,-71.139459,4493,4495,8988,2,Post-Pandemic (2022)
2022,143,EF - North Point Park,42.369885,-71.069957,14901,15515,30416,614,Post-Pandemic (2022)
2022,144,Rogers St & Land Blvd,42.366446738529454,-71.07654601335526,6040,5894,11934,-146,Post-Pandemic (2022)
2022,145,Rindge Avenue - O'Neill Library,42.392766,-71.129042,3367,3359,6726,-8,Post-Pandemic (2022)
2022,146,Murphy Skating Rink - 1880 Day Blvd,42.336448,-71.023739,6377,6941,13318,564,Post-Pandemic (2022)
2022,149,175 N Harvard St,42.363796,-71.129164,17939,18704,36643,765,Post-Pandemic (2022)
2022,15,Brighton Mills - 370 Western Ave,42.3615457081725,-71.13776206970215,9095,9569,18664,474,Post-Pandemic (2022)
2022,150,State Street at Channel Center,42.344137,-71.052608,7144,6969,14113,-175,Post-Pandemic (2022)
2022,151,Surface Rd at India St,42.358155,-71.052163,9935,9528,19463,-407,Post-Pandemic (2022)
2022,152,Ink Block - Harrison Ave at Herald St,42.345901,-71.063187,8501,8379,16880,-122,Post-Pandemic (2022)
2022,156,Somerville Hospital,42.390446216041305,-71.10856622457504,2864,2255,5119,-609,Post-Pandemic (2022)
2022,157,Seaport Blvd at Sleeper St,42.35317809186252,-71.04817356923377,21362,21936,43298,574,Post-Pandemic (2022)
2022,159,S Huntington Ave at Heath St,42.32760387040573,-71.11089169979095,4569,3808,8377,-761,Post-Pandemic (2022)
2022,16,Back Bay T Stop - Dartmouth St at Stuart St,42.34807412317439,-71.07657015323639,18886,19513,38399,627,Post-Pandemic (2022)
2022,160,Wentworth Institute of Technology - Huntington Ave at Vancouver St,42.33758601097239,-71.09627097845076,8524,9184,17708,660,Post-Pandemic (2022)
2022,161,W Broadway at D St,42.3391085,-71.0514432,15842,16141,31983,299,Post-Pandemic (2022)
2022,162,Franklin Park - Seaver St at Humboldt Ave,42.309796,-71.092225,989,665,1654,-324,Post-Pandemic (2022)
2022,163,The Lawn on D,42.344792,-71.044024,8533,7677,16210,-856,Post-Pandemic (2022)
2022,167,Ryan Playground - Dorchester Ave at Harbor View St,42.317642,-71.056664,2035,2217,4252,182,Post-Pandemic (2022)
2022,169,Edwards Playground - Main St at Eden St,42.378965,-71.068607,3898,3969,7867,71,Post-Pandemic (2022)
2022,17,Soldiers Field Park - 111 Western Ave,42.36426344063853,-71.1182756971175,14591,14349,28940,-242,Post-Pandemic (2022)
2022,170,Franklin Park Zoo - Franklin Park Rd at Blue Hill Ave,42.303469,-71.085347,1125,786,1911,-339,Post-Pandemic (2022)
2022,171,Bunker Hill Community College,42.37408991426522,-71.06905996799469,4124,2960,7084,-1164,Post-Pandemic (2022)
2022,173,Savin Hill T Stop - S Sydney St at Bay St,42.3106,-71.0539,1567,1934,3501,367,Post-Pandemic (2022)
2022,174,Washington St at Brock St,42.3489528466951,-71.16031676530838,2695,2764,5459,69,Post-Pandemic (2022)
2022,175,Brighton Center - Washington St at Cambridge St,42.34894857235593,-71.15027189254761,7012,6107,13119,-905,Post-Pandemic (2022)
2022,176,Lesley University,42.38674802045056,-71.11901879310608,8696,9237,17933,541,Post-Pandemic (2022)
2022,177,University Park,42.36264779118595,-71.10006093978882,23307,20794,44101,-2513,Post-Pandemic (2022)
2022,178,MIT Pacific St at Purrington St,42.35957320109044,-71.10129475593567,44233,42200,86433,-2033,Post-Pandemic (2022)
2022,179,MIT Vassar St,42.355601213279265,-71.10394477844238,37397,35139,72536,-2258,Post-Pandemic (2022)
2022,180,Mt Auburn,42.37478628706384,-71.13320231437683,5814,5783,11597,-31,Post-Pandemic (2022)
2022,181,Huron Ave At Vassal Lane,42.381650612901176,-71.13426981498378,4367,4162,8529,-205,Post-Pandemic (2022)
2022,182,Museum of Science,42.36769018024484,-71.07116281986237,6196,5480,11676,-716,Post-Pandemic (2022)
2022,183,Alewife MBTA at Steel Place,42.395588457167094,-71.14260613918304,7720,7524,15244,-196,Post-Pandemic (2022)
2022,184,Sidney Research Campus/Erie Street at Waverly,42.35775309465199,-71.10393404960632,12336,11723,24059,-613,Post-Pandemic (2022)
2022,185,Third at Binney,42.36544486137399,-71.08277142047882,16083,16033,32116,-50,Post-Pandemic (2022)
2022,186,Congress St at Northern Ave,42.3481,-71.03764,10853,10940,21793,87,Post-Pandemic (2022)
2022,187,Cypress St at Clark Playground,42.32784317478686,-71.1253622174263,2858,2557,5415,-301,Post-Pandemic (2022)
2022,188,Foss Park,42.39108438146733,-71.09039425849915,4062,4738,8800,676,Post-Pandemic (2022)
2022,189,Kendall T,42.3624278429124,-71.08495473861694,25634,25242,50876,-392,Post-Pandemic (2022)
2022,19,Park Dr at Buswell St,42.347241,-71.105301,12417,12860,25277,443,Post-Pandemic (2022)
2022,190,Nashua Street at Red Auerbach Way,42.365673,-71.064263,21793,21841,43634,48,Post-Pandemic (2022)
2022,191,Tappan St at Brookline Hills MBTA,42.331370168043215,-71.1268836054569,1002,977,1979,-25,Post-Pandemic (2022)
2022,191,Tappan St at Brookline Hills MBTA,42.33295289698479,-71.12824756309236,1611,1614,3225,3,Post-Pandemic (2022)
2022,192,Purchase St at Pearl St,42.354659,-71.053181,9409,9513,18922,104,Post-Pandemic (2022)
2022,193,Brookline Town Hall,42.33376472623494,-71.12046446660315,4275,4374,8649,99,Post-Pandemic (2022)
2022,194,Broadway St at Mt Pleasant St,42.38614141163957,-71.07828140258789,3634,3023,6657,-611,Post-Pandemic (2022)
2022,195,Child St at North St,42.37228487344452,-71.07383824772114,1731,1622,3353,-109,Post-Pandemic (2022)
2022,195,Child Street at Brian P. Murphy Staircase,42.371976784679745,-71.07200495972165,9351,8866,18217,-485,Post-Pandemic (2022)
2022,196,Roxbury YMCA - Warren St at MLK Blvd,42.31787329345602,-71.08243077993393,1673,1627,3300,-46,Post-Pandemic (2022)
2022,197,MLK Blvd at Washington St,42.32143814183195,-71.09126061201096,2191,2067,4258,-124,Post-Pandemic (2022)
2022,199,Uphams Corner T Stop - Magnolia St at Dudley St,42.318697341722434,-71.0697814822197,892,921,1813,29,Post-Pandemic (2022)
2022,20,Aquarium T Stop - 200 Atlantic Ave,42.35991176110118,-71.0514298081398,17926,18448,36374,522,Post-Pandemic (2022)
2022,200,Washington St at Melnea Cass Blvd,42.332817,-71.081198,5120,5312,10432,192,Post-Pandemic (2022)
2022,201,NCAAA - Walnut Ave at Crawford St,42.316902,-71.091946,1250,978,2228,-272,Post-Pandemic (2022)
2022,202,Grove Hall Library - 41 Geneva Ave,42.30791,-71.080952,840,716,1556,-124,Post-Pandemic (2022)
2022,203,Columbia Rd at Ceylon St,42.309572,-71.0729,672,645,1317,-27,Post-Pandemic (2022)
2022,204,Walnut Ave at Warren St,42.324081,-71.083235,1327,993,2320,-334,Post-Pandemic (2022)
2022,205,Bowdoin St at Quincy St,42.30785224238503,-71.06512248516083,1681,1588,3269,-93,Post-Pandemic (2022)
2022,206,Government Center - Cambridge St at Court St,42.3598253979878,-71.05979576244862,14277,12740,27017,-1537,Post-Pandemic (2022)
2022,208,Oak Square - 615 Washington St,42.35057,-71.166491,3303,3610,6913,307,Post-Pandemic (2022)
2022,21,Prudential Center - 101 Huntington Ave,42.34652003998412,-71.08065776545118,18754,18963,37717,209,Post-Pandemic (2022)
2022,210,Bennington St at Byron St,42.383532520117896,-71.01619094610214,926,776,1702,-150,Post-Pandemic (2022)
2022,211,Piers Park,42.36501119822304,-71.03528559207916,1755,1777,3532,22,Post-Pandemic (2022)
2022,212,Maverick Square - Lewis Mall,42.36884408289835,-71.03977829217911,4492,4601,9093,109,Post-Pandemic (2022)
2022,213,East Boston Neighborhood Health Center - 20 Maverick Square,42.369536,-71.039431,3192,3121,6313,-71,Post-Pandemic (2022)
2022,214,Airport T Stop - Bremen St at Brooks St,42.37410287664702,-71.03276431560516,168,190,358,22,Post-Pandemic (2022)
2022,214,Airport T Stop - Bremen St at Brooks St,42.374110605335304,-71.0327721095473,165,140,305,-25,Post-Pandemic (2022)
2022,214,Airport T Stop - Bremen St at Brooks St,42.37534192670574,-71.03128910064696,3442,3500,6942,58,Post-Pandemic (2022)
2022,215,The Eddy - New St at Sumner St,42.370744,-71.044201,1959,1838,3797,-121,Post-Pandemic (2022)
2022,216,Glendon St at Condor St,42.38240377674137,-71.03024303913116,448,435,883,-13,Post-Pandemic (2022)
2022,217,Orient Heights T Stop - Bennington St at Saratoga St,42.386781,-71.006098,1885,2060,3945,175,Post-Pandemic (2022)
2022,218,Watermark Seaport - Boston Wharf Rd at Seaport Blvd,42.351586001198456,-71.04569256305693,15471,16890,32361,1419,Post-Pandemic (2022)
2022,219,Boston East - 126 Border St,42.373312125824704,-71.0410200806291,1184,1132,2316,-52,Post-Pandemic (2022)
2022,22,South Station - 700 Atlantic Ave,42.352175,-71.055547,25613,26258,51871,645,Post-Pandemic (2022)
2022,221,Verizon Innovation Hub 10 Ware Street,42.37250864997261,-71.11305356025696,12235,11543,23778,-692,Post-Pandemic (2022)
2022,222,Troy Boston,42.343749,-71.062256,6110,6075,12185,-35,Post-Pandemic (2022)
2022,224,Fresh Pond Reservation,42.38267827521855,-71.143478951426,2648,2645,5293,-3,Post-Pandemic (2022)
2022,225,Cambridge Dept. of Public Works -147 Hampshire St.,42.37119727759414,-71.09759867191315,15580,14675,30255,-905,Post-Pandemic (2022)
2022,226,Commonwealth Ave At Babcock St,42.35154734791375,-71.12126246094704,14029,13198,27227,-831,Post-Pandemic (2022)
2022,227,Silber Way,42.34949599514002,-71.10057592391968,17416,18040,35456,624,Post-Pandemic (2022)
2022,228,One Memorial Drive,42.361619320766856,-71.0804355052096,6967,6398,13365,-569,Post-Pandemic (2022)
2022,23,Boston City Hall - 28 State St,42.35892,-71.057629,20488,19906,40394,-582,Post-Pandemic (2022)
2022,232,Four Corners - 157 Washington St,42.304127927390155,-71.07929527759552,506,463,969,-43,Post-Pandemic (2022)
2022,233,St Mary's,42.346197076555455,-71.10728681087494,12307,12292,24599,-15,Post-Pandemic (2022)
2022,234,Broadway at Central St,42.39517150121575,-71.09850591982195,4022,2509,6531,-1513,Post-Pandemic (2022)
2022,235,East Somerville Library (Broadway and Illinois),42.3876281075134,-71.08318716287613,3211,2942,6153,-269,Post-Pandemic (2022)
2022,236,Assembly Square T,42.39223284004627,-71.07746601104736,3979,5052,9031,1073,Post-Pandemic (2022)
2022,239,Community Path at Cedar Street,42.39407223665884,-71.11133694648743,8062,7689,15751,-373,Post-Pandemic (2022)
2022,24,Seaport Square - Seaport Blvd at Northern Ave,42.35148193460858,-71.04436084628105,12433,13137,25570,704,Post-Pandemic (2022)
2022,25,South End Library - Tremont St at W Newton St,42.341332,-71.076847,10188,10166,20354,-22,Post-Pandemic (2022)
2022,255,Park St at Norwell St,42.29442578670662,-71.07821760713703,259,308,567,49,Post-Pandemic (2022)
2022,258,Gallivan Blvd at Adams St,42.28297567840305,-71.05466698296368,701,959,1660,258,Post-Pandemic (2022)
2022,259,Washington St at Bowdoin St,42.29916497936589,-71.07345871645519,468,362,830,-106,Post-Pandemic (2022)
2022,26,Washington St at Waltham St,42.34157471873747,-71.06890439987183,10369,10798,21167,429,Post-Pandemic (2022)
2022,260,Fields Corner T Stop,42.299633488420625,-71.06068975823291,1376,1566,2942,190,Post-Pandemic (2022)
2022,27,Roxbury Crossing T Stop - Columbus Ave at Tremont St,42.331184,-71.095171,17212,17340,34552,128,Post-Pandemic (2022)
2022,271,Ashmont T Stop,42.2856944,-71.0641389,1513,1347,2860,-166,Post-Pandemic (2022)
2022,272,Shawmut T Stop,42.292917,-71.06575,962,1031,1993,69,Post-Pandemic (2022)
2022,273,Forest Hills,42.300923,-71.114249,8144,7960,16104,-184,Post-Pandemic (2022)
2022,279,Williams St at Washington St,42.306539,-71.107669,4253,4469,8722,216,Post-Pandemic (2022)
2022,280,Main St at Baldwin St,42.380857,-71.070629,4452,4091,8543,-361,Post-Pandemic (2022)
2022,282,Stony Brook T Stop,42.316966,-71.104374,7817,7802,15619,-15,Post-Pandemic (2022)
2022,29,Innovation Lab - 125 Western Ave at Batten Way,42.36371276003581,-71.12459778785706,11534,11857,23391,323,Post-Pandemic (2022)
2022,296,Farragut Rd at E. 6th St,42.3334,-71.02495,6074,6669,12743,595,Post-Pandemic (2022)
2022,3,Colleges of the Fenway - Fenway at Avenue Louis Pasteur,42.34011512249236,-71.10061883926392,9948,10282,20230,334,Post-Pandemic (2022)
2022,30,Brigham Circle - Francis St at Huntington Ave,42.33462893055976,-71.10407917767589,11972,11969,23941,-3,Post-Pandemic (2022)
2022,31,Seaport Hotel - Congress St at Seaport Ln,42.34881026188269,-71.04167744055303,7926,7991,15917,65,Post-Pandemic (2022)
2022,318,Ames St at Broadway,42.3636929,-71.0875672,16800,16937,33737,137,Post-Pandemic (2022)
2022,319,84 Cambridgepark Dr,42.3936,-71.143941,2314,2171,4485,-143,Post-Pandemic (2022)
2022,32,Landmark Center - Brookline Ave at Park Dr,42.34369055719747,-71.10235286881107,31578,31887,63465,309,Post-Pandemic (2022)
2022,327,Main St at Thompson Sq,42.374878467440965,-71.06383498767171,6229,5785,12014,-444,Post-Pandemic (2022)
2022,328,Grove St at Community Path,42.396386809455,-71.12011306006025,13014,13555,26569,541,Post-Pandemic (2022)
2022,329,Washington St at Myrtle St,42.3817508,-71.0839523,4568,4523,9091,-45,Post-Pandemic (2022)
2022,33,Kenmore Square,42.348706,-71.097009,19535,20087,39622,552,Post-Pandemic (2022)
2022,330,30 Dane St,42.38100143038052,-71.10402522613185,14211,14463,28674,252,Post-Pandemic (2022)
2022,331,Huntington Ave at Mass Art,42.336585554561154,-71.0988699646623,11465,11361,22826,-104,Post-Pandemic (2022)
2022,332,Harvard Ave at Brainerd Rd,42.34953016890375,-71.13022770741735,13072,12613,25685,-459,Post-Pandemic (2022)
2022,333,699 Mt Auburn St,42.37500235137831,-71.14871613699506,5501,5416,10917,-85,Post-Pandemic (2022)
2022,334,Mass Ave at Hadley/Walden,42.39120971915856,-71.12260755160605,5929,6111,12040,182,Post-Pandemic (2022)
2022,335,Harvard St at Greene-Rose Heritage Park,42.36599432867437,-71.09522221614498,14702,13366,28068,-1336,Post-Pandemic (2022)
2022,336,Mattapan T Stop,42.267902,-71.093641,403,495,898,92,Post-Pandemic (2022)
2022,337,Roslindale Village - South St,42.287072,-71.127754,1076,1665,2741,589,Post-Pandemic (2022)
2022,338,Commonwealth Ave at Kelton St,42.348358628170445,-71.13997217276847,7885,6870,14755,-1015,Post-Pandemic (2022)
2022,339,Archdale Rd at Washington St,42.29266592872725,-71.12119538714069,828,1044,1872,216,Post-Pandemic (2022)
2022,340,Blue Hill Ave at Almont St,42.27462067181224,-71.09372552493369,163,192,355,29,Post-Pandemic (2022)
2022,341,Roslindale Village - Washington St,42.28630716010807,-71.12820532182013,569,701,1270,132,Post-Pandemic (2022)
2022,342,Boylston St at Jersey St,42.344650628878306,-71.09732501226972,25889,26231,52120,342,Post-Pandemic (2022)
2022,343,Morton St T,42.280725142920296,-71.08617242434775,160,153,313,-7,Post-Pandemic (2022)
2022,344,Commonwealth Ave at Chiswick Rd,42.34024644768889,-71.15168806174552,3163,2350,5513,-813,Post-Pandemic (2022)
2022,345,Park Plaza at Charles St S.,42.351828068920675,-71.06781138111728,10768,10496,21264,-272,Post-Pandemic (2022)
2022,346,Cleveland Circle,42.335543083570826,-71.15061519672052,4629,4186,8815,-443,Post-Pandemic (2022)
2022,347,Thetford Ave at Norfolk St,42.286212948246096,-71.07942931372236,205,192,397,-13,Post-Pandemic (2022)
2022,348,Talbot Ave At Blue Hill Ave,42.2945833,-71.087111,468,540,1008,72,Post-Pandemic (2022)
2022,349,Washington St at Talbot Ave,42.290333,-71.071806,479,450,929,-29,Post-Pandemic (2022)
2022,35,Arch St at Franklin St,42.35533501941256,-71.0582291708306,13264,13942,27206,678,Post-Pandemic (2022)
2022,350,Codman Square Library,42.2873611,-71.071111,561,472,1033,-89,Post-Pandemic (2022)
2022,351,Faneuil St at Arlington St,42.35276620545606,-71.15988485533308,2166,2557,4723,391,Post-Pandemic (2022)
2022,352,Ring Rd,42.348278385426255,-71.08044855314802,5338,5753,11091,415,Post-Pandemic (2022)
2022,353,Mattapan Library,42.2773889,-71.09325,207,194,401,-13,Post-Pandemic (2022)
2022,354,Washington St at Egremont Rd,42.34286835071959,-71.14127840855872,4131,3381,7512,-750,Post-Pandemic (2022)
2022,355,Bennington St at Constitution Beach,42.385223935870535,-71.01063068965232,1574,1546,3120,-28,Post-Pandemic (2022)
2022,356,Charlestown Navy Yard,42.374124549426526,-71.05481199938367,16171,16550,32721,379,Post-Pandemic (2022)
2022,357,Centre St at Seaverns Ave,42.3121203,-71.1142981,3656,3754,7410,98,Post-Pandemic (2022)
2022,358,Medford St at Charlestown BCYF,42.380429474494896,-71.06055721676967,4190,4213,8403,23,Post-Pandemic (2022)
2022,359,One Brigham Circle,42.33392270136997,-71.10446508982932,11004,9406,20410,-1598,Post-Pandemic (2022)
2022,36,Copley Square - Dartmouth St at Boylston St,42.34992828230057,-71.07739206866427,22672,23823,46495,1151,Post-Pandemic (2022)
2022,360,Bartlett St at John Elliot Sq,42.3294633,-71.0901582,4683,3901,8584,-782,Post-Pandemic (2022)
2022,361,Deerfield St at Commonwealth Ave,42.34924376955301,-71.09728209692548,29188,29756,58944,568,Post-Pandemic (2022)
2022,362,Columbia Rd at Tierney Community Center,42.33023070528729,-71.05060093123029,4856,6221,11077,1365,Post-Pandemic (2022)
2022,363,Harrison Ave at Mullins Way,42.34521562115022,-71.0638403149278,14838,14149,28987,-689,Post-Pandemic (2022)
2022,364,Tremont St at Northampton St,42.338431795290944,-71.08169049924982,9685,9701,19386,16,Post-Pandemic (2022)
2022,364,Tremont St at Northampton St,42.33889559644165,-71.08149975611013,2935,3131,6066,196,Post-Pandemic (2022)
2022,365,Harrison Ave at Bennet St,42.34942609892521,-71.06209959843909,9367,9292,18659,-75,Post-Pandemic (2022)
2022,367,Vassal Lane at Tobin/VLUS,42.38536765218425,-71.13775670528412,1323,1337,2660,14,Post-Pandemic (2022)
2022,368,Blue Hill Ave at Southwood St,42.31786020589987,-71.07798628527235,670,576,1246,-94,Post-Pandemic (2022)
2022,37,New Balance - 20 Guest St,42.35732921867706,-71.14673539996147,4310,4336,8646,26,Post-Pandemic (2022)
2022,370,Dartmouth St at Newbury St,42.35096144421219,-71.07782810926437,18636,19991,38627,1355,Post-Pandemic (2022)
2022,371,700 Huron Ave,42.380788172914286,-71.15412890911102,1764,1634,3398,-130,Post-Pandemic (2022)
2022,372,Boylston St at Exeter St,42.349589423682445,-71.0794677917329,23317,24387,47704,1070,Post-Pandemic (2022)
2022,373,Belgrade Ave at Walworth St,42.28634589486312,-71.13672129828046,514,435,949,-79,Post-Pandemic (2022)
2022,374,Tremont St at Hamilton Pl,42.35668334969929,-71.06166645884514,17767,17027,34794,-740,Post-Pandemic (2022)
2022,376,Honan Library,42.36027370454934,-71.12852452327388,8124,8257,16381,133,Post-Pandemic (2022)
2022,377,Perry Park,42.37927324600841,-71.10341902831351,9749,10051,19800,302,Post-Pandemic (2022)
2022,378,191 Beacon St,42.38032335045416,-71.10878612855231,9463,8652,18115,-811,Post-Pandemic (2022)
2022,379,Tremont St at W. Dedham St,42.34254913737952,-71.07421449387857,9192,9165,18357,-27,Post-Pandemic (2022)
2022,380,Mass Ave at Albany St,42.36135837662249,-71.09670273977825,30541,30773,61314,232,Post-Pandemic (2022)
2022,381,Inman Square at Springfield St.,42.37426713524931,-71.10026478767395,21664,20904,42568,-760,Post-Pandemic (2022)
2022,384,Clarendon St at Newbury St,42.35159662465317,-71.0756166279316,11486,12213,23699,727,Post-Pandemic (2022)
2022,385,Albany St at E. Brookline St,42.33664795427071,-71.0689445958451,6016,6403,12419,387,Post-Pandemic (2022)
2022,386,Sennott Park Broadway at Norfolk Street,42.36860524248197,-71.09930185605663,19834,18602,38436,-1232,Post-Pandemic (2022)
2022,387,7 Acre Park,42.41143222973408,-71.06823265090497,2004,2325,4329,321,Post-Pandemic (2022)
2022,389,Everett Square (Broadway at Chelsea St),42.406956789102416,-71.05650289605819,807,803,1610,-4,Post-Pandemic (2022)
2022,389,Everett Square (Broadway at Chelsea St),42.40725945172653,-71.05546381333625,158,148,306,-10,Post-Pandemic (2022)
2022,389,Everett Square (Broadway at Chelsea St),42.40743489432222,-71.05533242225647,121,135,256,14,Post-Pandemic (2022)
2022,39,Washington St at Rutland St,42.338514601785995,-71.07404083013535,21190,21697,42887,507,Post-Pandemic (2022)
2022,390,Broadway at Lynde St,42.39648358247693,-71.06546759905541,1492,1612,3104,120,Post-Pandemic (2022)
2022,391,Encore,42.39329263225162,-71.0724475979805,1630,1805,3435,175,Post-Pandemic (2022)
2022,392,Glendale Square (Ferry St at Broadway),42.41427294293992,-71.04479655659816,1029,1126,2155,97,Post-Pandemic (2022)
2022,393,Swan St. Park,42.412504507772105,-71.05842225271772,503,475,978,-28,Post-Pandemic (2022)
2022,394,Broadway at Maple St,42.410346909767846,-71.05260457852637,945,803,1748,-142,Post-Pandemic (2022)
2022,395,Chelsea St at Vine St,42.40328056972533,-71.04762639859473,1199,1173,2372,-26,Post-Pandemic (2022)
2022,396,Wasgott Playground,42.4093300667225,-71.06381878293178,510,587,1097,77,Post-Pandemic (2022)
2022,397,Broadway at Beacham St,42.39836059620832,-71.06373842814719,1568,1630,3198,62,Post-Pandemic (2022)
2022,398,75 Binney St,42.36550728505653,-71.0801375997653,12216,10812,23028,-1404,Post-Pandemic (2022)
2022,399,Shawmut Ave at Oak St W,42.34854543411198,-71.06559185315746,7275,7132,14407,-143,Post-Pandemic (2022)
2022,4,Tremont St at E Berkeley St,42.345392,-71.069616,14893,15308,30201,415,Post-Pandemic (2022)
2022,40,Lewis Wharf at Atlantic Ave,42.363871,-71.050877,19442,19157,38599,-285,Post-Pandemic (2022)
2022,400,Lansdowne T Stop,42.34734473177431,-71.1001680795016,9830,10277,20107,447,Post-Pandemic (2022)
2022,401,High St at Cypress St,42.32464510949409,-71.12135231494904,2145,1993,4138,-152,Post-Pandemic (2022)
2022,402,Washington Sq,42.33985827126298,-71.13421171095978,4096,3525,7621,-571,Post-Pandemic (2022)
2022,402,Washington St at Griggs Rd,42.33985827126298,-71.13421171095978,759,586,1345,-173,Post-Pandemic (2022)
2022,403,Marion St at Harvard St,42.340122426966424,-71.12070563810447,12006,11952,23958,-54,Post-Pandemic (2022)
2022,404,Mass Ave T Station,42.34135615767354,-71.08336953450817,13567,13740,27307,173,Post-Pandemic (2022)
2022,405,Sydney St at Carson St,42.32039374304257,-71.05355408051764,2153,2422,4575,269,Post-Pandemic (2022)
2022,406,Somerville City Hall Annex,42.39189811591863,-71.09745375830244,2337,2107,4444,-230,Post-Pandemic (2022)
2022,407,Craigie at Summer St,42.38350130091656,-71.10808975291548,82,79,161,-3,Post-Pandemic (2022)
2022,407,Craigie at Summer St,42.38831607584243,-71.1106824874878,3039,1539,4578,-1500,Post-Pandemic (2022)
2022,408,Edgerly Education Center,42.38717463348314,-71.08714388528824,3881,3855,7736,-26,Post-Pandemic (2022)
2022,409,Elm St at White St,42.38952436305763,-71.11694140364307,7561,7163,14724,-398,Post-Pandemic (2022)
2022,41,Packard's Corner - Commonwealth Ave at Brighton Ave,42.352261,-71.123831,24286,23553,47839,-733,Post-Pandemic (2022)
2022,410,Adams St at Lonsdale St,42.291679428741226,-71.05726346409938,613,680,1293,67,Post-Pandemic (2022)
2022,412,Washington St at Peters Park,42.34303291130257,-71.06688730436872,7911,7894,15805,-17,Post-Pandemic (2022)
2022,413,Kennedy-Longfellow School 158 Spring St,42.36955297756508,-71.08579014980933,18727,17814,36541,-913,Post-Pandemic (2022)
2022,414,Discovery Park - 30 Acorn Park Drive,42.39790817368333,-71.14797130814623,4988,4934,9922,-54,Post-Pandemic (2022)
2022,415,Stuart St at Berkeley St,42.34954403114251,-71.0724207387284,12359,12695,25054,336,Post-Pandemic (2022)
2022,416,Blossom St at Charles St,42.36435589027983,-71.0695936904267,11262,11149,22411,-113,Post-Pandemic (2022)
2022,417,Columbus Ave at W. Canton St,42.34474224772802,-71.07648162175792,14028,13819,27847,-209,Post-Pandemic (2022)
2022,419,Central Square East Boston,42.37544912547037,-71.03918548682486,3284,3529,6813,245,Post-Pandemic (2022)
2022,42,Boylston St at Arlington St,42.35200960743121,-71.07060294892108,18414,20253,38667,1839,Post-Pandemic (2022)
2022,42,Boylston St at Arlington St,42.35254842775383,-71.06767407367443,1448,1876,3324,428,Post-Pandemic (2022)
2022,42,Boylston St at Charles St (Temp Winter Location),42.35258524849636,-71.06770277023315,327,472,799,145,Post-Pandemic (2022)
2022,421,Northbourne Rd at Hyde Park Ave,42.29118034790426,-71.117736660035,492,523,1015,31,Post-Pandemic (2022)
2022,422,American Legion Hwy at Cummins Hwy,42.278811581565975,-71.11687703062671,208,235,443,27,Post-Pandemic (2022)
2022,423,Mt. Hope St at Hyde Park Ave,42.28484472443536,-71.11874517062459,493,512,1005,19,Post-Pandemic (2022)
2022,424,Jamaica St at South St,42.3060456272408,-71.11570891001975,1929,2035,3964,106,Post-Pandemic (2022)
2022,425,The Dimock Center,42.3193094317828,-71.09639923859504,1081,759,1840,-322,Post-Pandemic (2022)
2022,426,Surface Rd at Summer St,42.35294569782581,-71.05656400803126,12566,13086,25652,520,Post-Pandemic (2022)
2022,427,Washington St at Denton Terr,42.280728147169015,-71.13423757273267,448,268,716,-180,Post-Pandemic (2022)
2022,428,Western Ave at Richardson St,42.36178741066187,-71.14393111327445,4616,5169,9785,553,Post-Pandemic (2022)
2022,43,Rowes Wharf at Atlantic Ave,42.357143,-71.050699,9950,10013,19963,63,Post-Pandemic (2022)
2022,430,Washington St at Walsh Playground,42.277194696397906,-71.06955613950048,282,299,581,17,Post-Pandemic (2022)
2022,431,Washington St at Fuller St,42.281986277339136,-71.07147924620222,117,123,240,6,Post-Pandemic (2022)
2022,432,Centre St at W. Roxbury Post Office,42.286331991127746,-71.15344755369732,414,395,809,-19,Post-Pandemic (2022)
2022,433,Centre St at Parkway YMCA,42.28277901074054,-71.15728851416861,285,279,564,-6,Post-Pandemic (2022)
2022,434,Spring St at Powell St,42.277484442008216,-71.16341467955863,282,238,520,-44,Post-Pandemic (2022)
2022,435,Central Ave at River St,42.27094707029229,-71.07337901405117,478,525,1003,47,Post-Pandemic (2022)
2022,436,Maverick St at Massport Path,42.36774122306014,-71.0333597474255,1614,1538,3152,-76,Post-Pandemic (2022)
2022,437,Berkshire Street at Cambridge Street,42.37207657915397,-71.08995433905875,22397,21797,44194,-600,Post-Pandemic (2022)
2022,44,Congress St at Boston City Hall,42.36041774637169,-71.05752243543975,10747,10166,20913,-581,Post-Pandemic (2022)
2022,440,Boston Landing,42.35656092308941,-71.14167537549292,4227,4400,8627,173,Post-Pandemic (2022)
2022,441,Sullivan Square,42.38445225635843,-71.07514854529654,4096,3969,8065,-127,Post-Pandemic (2022)
2022,442,Hyde Park Ave at Walk Hill St,42.29606704649873,-71.11601199963843,1069,969,2038,-100,Post-Pandemic (2022)
2022,443,Whittier St Health Center,42.332862884862635,-71.09218861916816,1633,1574,3207,-59,Post-Pandemic (2022)
2022,445,Geiger Gibson Community Health Center,42.31886468217537,-71.04536797860419,3678,3951,7629,273,Post-Pandemic (2022)
2022,446,700 Commonwealth Ave.,42.34960945333059,-71.10391523698127,19890,20212,40102,322,Post-Pandemic (2022)
2022,447,The Overlook at St. Gabriel's,42.34679008347347,-71.14549813806661,2685,985,3670,-1700,Post-Pandemic (2022)
2022,448,Hale Park,42.4206487,-71.0437126,357,360,717,3,Post-Pandemic (2022)
2022,452,1200 Beacon St,42.34414898749529,-71.11467361450195,9552,9562,19114,10,Post-Pandemic (2022)
2022,454,Boylston St at Dartmouth St,42.35010609546997,-71.07720464005979,3771,3808,7579,37,Post-Pandemic (2022)
2022,454,Boylston St at Dartmouth St,42.35019319808638,-71.07744187116623,4101,4164,8265,63,Post-Pandemic (2022)
2022,455,Coolidge Sq.,42.372076114722866,-71.15683130688922,1586,1632,3218,46,Post-Pandemic (2022)
2022,456,Graham and Parks School – Linnaean St at Walker St,42.38294430172271,-71.12449831038248,7719,7261,14980,-458,Post-Pandemic (2022)
2022,458,Watertown Sq,42.365260317694485,-71.18573324459247,2296,1936,4232,-360,Post-Pandemic (2022)
2022,459,Canal St at Causeway St,42.36530094929082,-71.06092190993877,20172,21246,41418,1074,Post-Pandemic (2022)
2022,46,Christian Science Plaza - Massachusetts Ave at Westland Ave,42.3436658245146,-71.08582377433777,37763,38134,75897,371,Post-Pandemic (2022)
2022,460,Broad St at Central St,42.35849449039304,-71.05426469875965,5858,5650,11508,-208,Post-Pandemic (2022)
2022,461,Railroad Lot and Minuteman Bikeway,42.41606457115141,-71.15336636682059,2901,3330,6231,429,Post-Pandemic (2022)
2022,462,Linwood St at Minuteman Bikeway,42.40935395518158,-71.14906518727366,3649,3656,7305,7,Post-Pandemic (2022)
2022,463,Smith Pl at Wilson Rd,42.39239749145834,-71.15058331757609,2267,2448,4715,181,Post-Pandemic (2022)
2022,464,Mass Ave at Grafton St,42.40726052447951,-71.14382132425817,1304,1282,2586,-22,Post-Pandemic (2022)
2022,465,Broadway at Grafton St,42.40994213011757,-71.14009319811885,830,811,1641,-19,Post-Pandemic (2022)
2022,466,Centre St at Washington St,42.35574334805774,-71.18641942508475,387,342,729,-45,Post-Pandemic (2022)
2022,467,Washington St at Crafts St,42.35389024396587,-71.19943707257335,473,386,859,-87,Post-Pandemic (2022)
2022,468,Nonantum Library,42.36068455768156,-71.20146199598821,0,483,483,483,Post-Pandemic (2022)
2022,469,Bacon St at Washington St,42.35711920909866,-71.1860453666327,973,708,1681,-265,Post-Pandemic (2022)
2022,47,Cross St at Hanover St,42.362811,-71.056067,28070,28836,56906,766,Post-Pandemic (2022)
2022,470,Union St at Herrick Rd – Newton Centre Green Line,42.32956868185623,-71.19367271661758,267,156,423,-111,Post-Pandemic (2022)
2022,471,MIT Carleton St at Amherst St,42.36054174140606,-71.08669817447662,25403,26156,51559,753,Post-Pandemic (2022)
2022,472,MIT Hayward St at Amherst St,42.36085937353302,-71.08551858007559,22884,21602,44486,-1282,Post-Pandemic (2022)
2022,473,West Newton,42.34960049864208,-71.2262749671936,0,212,212,212,Post-Pandemic (2022)
2022,474,Watertown St at Albemarle Rd,42.354104081396585,-71.21382214128971,0,215,215,215,Post-Pandemic (2022)
2022,475,Arsenal Yards,42.36277388549605,-71.15764854490408,5060,5258,10318,198,Post-Pandemic (2022)
2022,476,Boylston St at Charles St,42.3525760946701,-71.06764405041758,447,578,1025,131,Post-Pandemic (2022)
2022,477,Marion St at White St,42.38066930871317,-71.03907315999093,900,829,1729,-71,Post-Pandemic (2022)
2022,478,Gove St at Orleans St,42.37057753242139,-71.03558540113227,1756,1705,3461,-51,Post-Pandemic (2022)
2022,479,Galileo Galilei Way at Main Street,42.363003781560096,-71.08974037706501,13703,14318,28021,615,Post-Pandemic (2022)
2022,48,Post Office Square,42.35585435522005,-71.05459745998814,5396,5591,10987,195,Post-Pandemic (2022)
2022,480,Thorndike Field at Minuteman Bikeway,42.40016804853787,-71.14456963094199,2685,2618,5303,-67,Post-Pandemic (2022)
2022,481,645 Summer St,42.341780891371904,-71.03987016504107,3114,3150,6264,36,Post-Pandemic (2022)
2022,482,Kearins Playground,42.40616124132245,-71.06041654944418,502,506,1008,4,Post-Pandemic (2022)
2022,483,Porzio Park,42.364119035231525,-71.02876782417297,2031,2078,4109,47,Post-Pandemic (2022)
2022,484,Revere Public Library,42.408088,-71.008942,246,298,544,52,Post-Pandemic (2022)
2022,485,Revere City Hall,42.40741,-71.0139,415,555,970,140,Post-Pandemic (2022)
2022,486,Langley Lot,42.330528,-71.192861,511,420,931,-91,Post-Pandemic (2022)
2022,487,Community Path at Lowell St,42.392525,-71.105587,7874,7713,15587,-161,Post-Pandemic (2022)
2022,488,Martha Eliot Health Center,42.324173,-71.10196,2690,2502,5192,-188,Post-Pandemic (2022)
2022,489,Day Sq,42.379295,-71.027733,1216,1286,2502,70,Post-Pandemic (2022)
2022,49,Stuart St at Charles St,42.351146,-71.066289,11771,12047,23818,276,Post-Pandemic (2022)
2022,490,Blue Hill Ave at Havelock St,42.286012,-71.090986,276,309,585,33,Post-Pandemic (2022)
2022,491,Harrison Ave at E. Dedham St,42.339194,-71.06975,8248,7925,16173,-323,Post-Pandemic (2022)
2022,492,Harvard Stadium: N. Harvard St at Soldiers Field Rd,42.368019,-71.1242,14924,15500,30424,576,Post-Pandemic (2022)
2022,493,2 Hummingbird Lane at Olmsted Green,42.28887,-71.095003,77,78,155,1,Post-Pandemic (2022)
2022,494,Watertown Town Hall,42.367621,-71.187936,763,709,1472,-54,Post-Pandemic (2022)
2022,495,Union Square East,42.380078,-71.090098,6557,6663,13220,106,Post-Pandemic (2022)
2022,496,Trum Field @ Cedar St (Temp Winter Station),42.398444,-71.107833,267,268,535,1,Post-Pandemic (2022)
2022,497,Washington St @ New Washington St (Temp Winter Station),42.38103731531107,-71.08709779349738,342,344,686,2,Post-Pandemic (2022)
2022,497,Washington St @ New Washington St (Temp Winter Station),42.381056,-71.087083,167,162,329,-5,Post-Pandemic (2022)
2022,498,Broadway Opposite Norwood Ave  (Temp Winter Station),42.396764,-71.102376,113,88,201,-25,Post-Pandemic (2022)
2022,499,Conway Park @ Bleachery Ct (Temp Winter Station),42.3834575023727,-71.10771059989929,398,347,745,-51,Post-Pandemic (2022)
2022,499,Conway Park @ Bleachery Ct (Temp Winter Station),42.3836409294306,-71.10868692398071,563,572,1135,9,Post-Pandemic (2022)
2022,5,Northeastern University - North Parking Lot,42.341814,-71.090179,11851,12284,24135,433,Post-Pandemic (2022)
2022,50,Boylston St at Berkeley St,42.3511419825475,-71.07329249382019,9045,9349,18394,304,Post-Pandemic (2022)
2022,502,160 Arsenal,42.36466403441681,-71.17569386959076,1718,1657,3375,-61,Post-Pandemic (2022)
2022,503,Cary Square,42.398135645582464,-71.030709722545,265,243,508,-22,Post-Pandemic (2022)
2022,504,Bellingham Square,42.3931961102951,-71.03344559669495,333,385,718,52,Post-Pandemic (2022)
2022,505,Chelsea Square,42.390226711033826,-71.03857017704286,675,744,1419,69,Post-Pandemic (2022)
2022,506,Broadway at Gerrish Ave,42.39453079292221,-71.03085594484583,362,335,697,-27,Post-Pandemic (2022)
2022,507,Chelsea Station,42.39636527849676,-71.03987179230899,950,1095,2045,145,Post-Pandemic (2022)
2022,508,855 Broadway,42.398417726101584,-71.02390923402707,679,706,1385,27,Post-Pandemic (2022)
2022,509,Nichols Ave. at Watertown Greenway,42.36762048745005,-71.1565663665533,2176,2282,4458,106,Post-Pandemic (2022)
2022,51,Washington St at Lenox St,42.3350989929096,-71.07903778553009,7278,7386,14664,108,Post-Pandemic (2022)
2022,510,Mass Ave at Broadway,42.414202132001854,-71.15051883389242,1353,1488,2841,135,Post-Pandemic (2022)
2022,511,Bellevue T Stop,42.28611420958351,-71.14636927843094,233,199,432,-34,Post-Pandemic (2022)
2022,512,Knoll St at Centre St,42.29376656473529,-71.1365658044815,437,411,848,-26,Post-Pandemic (2022)
2022,513,Roseland St At Dorchester Ave,42.2911685327193,-71.06300890445709,343,356,699,13,Post-Pandemic (2022)
2022,514,Gilman Square T at Medford St,42.3867355,-71.0946444,1074,859,1933,-215,Post-Pandemic (2022)
2022,515,955 Mass Ave,42.36895180540729,-71.10998779535294,22557,21471,44028,-1086,Post-Pandemic (2022)
2022,52,Newbury St at Hereford St,42.348717,-71.085954,30950,31235,62185,285,Post-Pandemic (2022)
2022,523,Boston College T,42.33987891612856,-71.16708934307098,2964,2708,5672,-256,Post-Pandemic (2022)
2022,524,Newton Highlands T,42.322065656952944,-71.2063729763031,0,247,247,247,Post-Pandemic (2022)
2022,525,California at Chapel,42.365148708129546,-71.20236039161682,0,828,828,828,Post-Pandemic (2022)
2022,526,Beacon at Walnut,42.330062324402995,-71.20668411254883,0,123,123,123,Post-Pandemic (2022)
2022,528,Washington St at Walnut St,42.351458116963016,-71.20764970779419,0,318,318,318,Post-Pandemic (2022)
2022,529,One Beacon St,42.358477644348106,-71.06135129928589,6189,4061,10250,-2128,Post-Pandemic (2022)
2022,53,Beacon St at Massachusetts Ave,42.35082680669095,-71.0898108780384,31192,31948,63140,756,Post-Pandemic (2022)
2022,530,Foley St at Grand Union Blvd,42.39301840035393,-71.08071684837341,5200,6195,11395,995,Post-Pandemic (2022)
2022,531,Harvard St and Stedman St,42.3443517550051,-71.12490355968475,8356,8070,16426,-286,Post-Pandemic (2022)
2022,532,Concord Ave at Spinelli Place,42.390719,-71.1538877,1397,1523,2920,126,Post-Pandemic (2022)
2022,533,Danehy Park at New Street,42.389456,-71.139019,3712,3864,7576,152,Post-Pandemic (2022)
2022,535,Auburndale,42.34805541493346,-71.2477594614029,0,172,172,172,Post-Pandemic (2022)
2022,536,Clinton St at North St,42.3607028354884,-71.05524927377701,7405,6813,14218,-592,Post-Pandemic (2022)
2022,537,Charles River Greenway - California St. at Fifth Ave,42.36455361053197,-71.19100391864777,560,445,1005,-115,Post-Pandemic (2022)
2022,538,Circuit Drive at American Legion Hwy,42.29704126420948,-71.09171926975249,683,660,1343,-23,Post-Pandemic (2022)
2022,539,Walnut Ave at School St,42.31242399029812,-71.09616905450821,1259,978,2237,-281,Post-Pandemic (2022)
2022,54,Tremont St at West St,42.354979,-71.063348,17119,17119,34238,0,Post-Pandemic (2022)
2022,540,Sumner St at Shirley Ave,42.408337058129746,-70.99804848432541,832,841,1673,9,Post-Pandemic (2022)
2022,541,Orr Sq (Shirley Ave),42.40715655698643,-70.99272429943085,1916,2211,4127,295,Post-Pandemic (2022)
2022,542,Hyde Park Ave at Arlington St,42.26286746177123,-71.12163126468657,107,118,225,11,Post-Pandemic (2022)
2022,543,American Legion Hwy at Hyde Park Ave,42.27265394101898,-71.119903922081,74,102,176,28,Post-Pandemic (2022)
2022,544,Old Morse Park at Putnam Ave,42.35766247889882,-71.1084133386612,14032,13363,27395,-669,Post-Pandemic (2022)
2022,545,Morton St at Gallivan Blvd,42.278747,-71.080286,184,158,342,-26,Post-Pandemic (2022)
2022,546,Cleary Sq,42.2556,-71.12444,150,184,334,34,Post-Pandemic (2022)
2022,547,606 American Legion Hwy at Canterbury St,42.28578,-71.109725,345,409,754,64,Post-Pandemic (2022)
2022,548,555 Metropolitan Ave,42.2681,-71.11924,74,78,152,4,Post-Pandemic (2022)
2022,549,Valenti Way at Haverhill St,42.36473898691789,-71.05934903025626,18382,18184,36566,-198,Post-Pandemic (2022)
2022,55,Boylston St at Massachusetts Ave,42.34740620525209,-71.08678414955648,34286,35157,69443,871,Post-Pandemic (2022)
2022,550,Somerville High School & Central Library,42.3864,-71.09601,3119,1885,5004,-1234,Post-Pandemic (2022)
2022,553,Cambridge Crossing at North First Street,42.371141,-71.076198,22251,21377,43628,-874,Post-Pandemic (2022)
2022,554,Forsyth St at Huntington Ave,42.339202,-71.090511,35409,36937,72346,1528,Post-Pandemic (2022)
2022,555,Hyde Park Library,42.2568376,-71.122509,163,164,327,1,Post-Pandemic (2022)
2022,556,Ross Playground,42.2645666,-71.1145523,172,163,335,-9,Post-Pandemic (2022)
2022,557,Galileo Galilei Way at Fulkerson St/Binney St,42.3664204,-71.0885418,6912,6210,13122,-702,Post-Pandemic (2022)
2022,558,St. Alphonsus St at Tremont St,42.33329254719182,-71.10124647617339,13470,12024,25494,-1446,Post-Pandemic (2022)
2022,559,Centre St at Commonwealth Ave,42.3362358,-71.1934421,235,221,456,-14,Post-Pandemic (2022)
2022,56,Dudley Square - Bolling Building,42.329842993518085,-71.08386572459494,4393,4671,9064,278,Post-Pandemic (2022)
2022,560,Flat 9 at Whittier,42.33420351352245,-71.08767616843123,1406,1791,3197,385,Post-Pandemic (2022)
2022,561,Pier 4 Blvd at Autumn Ln,42.3502102,-71.0446705,6508,6224,12732,-284,Post-Pandemic (2022)
2022,563,Addison St at Saratoga St,42.38518146513944,-71.0151367,926,868,1794,-58,Post-Pandemic (2022)
2022,564,Raymond Park at Walden St,42.38736953747185,-71.12761001482795,2368,2292,4660,-76,Post-Pandemic (2022)
2022,565,Wellington MBTA,42.4023682,-71.07573182424781,1170,1095,2265,-75,Post-Pandemic (2022)
2022,566,Main Street/Albany Street/Technology Square,42.3629016,-71.0915669,8181,8132,16313,-49,Post-Pandemic (2022)
2022,567,Brighton Ave at Linden St,42.3528376,-71.1296752,5726,5710,11436,-16,Post-Pandemic (2022)
2022,568,Shawmut Ave at Lenox St,42.33584612997077,-71.08038157224655,1420,1406,2826,-14,Post-Pandemic (2022)
2022,569,Hood Park,42.38004534693313,-71.0730457305908,918,842,1760,-76,Post-Pandemic (2022)
2022,57,Massachusetts Ave at Columbus Ave,42.33949453726166,-71.0802078062261,275,291,566,16,Post-Pandemic (2022)
2022,57,Massachusetts Ave at Columbus Ave,42.340814,-71.0816197,10716,10747,21463,31,Post-Pandemic (2022)
2022,576,Main St at Brooks Park,42.411709,-71.110444,217,229,446,12,Post-Pandemic (2022)
2022,577,Medford Sq - Riverside Ave at River St,42.417724,-71.108102,280,305,585,25,Post-Pandemic (2022)
2022,578,Tufts Sq - Main St at Medford St,42.401697,-71.106128,476,504,980,28,Post-Pandemic (2022)
2022,58,Mugar Way at Beacon St,42.35553628489709,-71.07286870479584,24020,24179,48199,159,Post-Pandemic (2022)
2022,582,Gore Street at Lambert Street,42.373079797934935,-71.08634233665725,3874,3781,7655,-93,Post-Pandemic (2022)
2022,583,Broad Canal Way at Third Street,42.36304549626695,-71.08287078916874,1776,1597,3373,-179,Post-Pandemic (2022)
2022,584,Malden Center T Station,42.426541,-71.073179,245,224,469,-21,Post-Pandemic (2022)
2022,585,Northern Strand at Main St,42.42386,-71.067793,179,181,360,2,Post-Pandemic (2022)
2022,586,Gramsdorf Playground,42.408156,-71.0429,145,129,274,-16,Post-Pandemic (2022)
2022,587,Malden High School,42.426537658440544,-71.06393694877625,108,115,223,7,Post-Pandemic (2022)
2022,59,Chinatown Gate Plaza,42.351356,-71.059367,12336,12794,25130,458,Post-Pandemic (2022)
2022,590,John Ahern Field at Kennedy-Longfellow School,42.36903566594827,-71.08630959910442,304,282,586,-22,Post-Pandemic (2022)
2022,591,515 Somerville Ave (Temp. Winter Location),42.38322726839113,-71.10606908798218,323,384,707,61,Post-Pandemic (2022)
2022,6,Cambridge St at Joy St,42.36125721646537,-71.06528744101524,20733,20219,40952,-514,Post-Pandemic (2022)
2022,60,Charles Circle - Charles St at Cambridge St,42.36079296858265,-71.07118962337152,41225,41376,82601,151,Post-Pandemic (2022)
2022,61,Boylston St at Fairfield St,42.348803822833936,-71.08236908912659,1172,1217,2389,45,Post-Pandemic (2022)
2022,61,Boylston St at Fairfield St,42.34908155168097,-71.08192384243011,9081,9279,18360,198,Post-Pandemic (2022)
2022,63,Dorchester Ave at Gillette Park,42.34404051001635,-71.05737626552582,6842,6846,13688,4,Post-Pandemic (2022)
2022,64,Congress St at Sleeper St,42.351004495946704,-71.04930013418198,8283,8869,17152,586,Post-Pandemic (2022)
2022,65,Boston Convention and Exhibition Center - Summer St at West Side Dr,42.347763454147454,-71.0453599691391,6455,6152,12607,-303,Post-Pandemic (2022)
2022,66,Commonwealth Ave at Griggs St,42.34922469338298,-71.13275302578586,11202,10556,21758,-646,Post-Pandemic (2022)
2022,67,MIT at Mass Ave / Amherst St,42.3581,-71.093198,85600,85224,170824,-376,Post-Pandemic (2022)
2022,68,Central Square at Mass Ave / Essex St,42.36507,-71.1031,67510,67683,135193,173,Post-Pandemic (2022)
2022,69,Coolidge Corner - Beacon St at Centre St,42.341598,-71.123338,13705,13561,27266,-144,Post-Pandemic (2022)
2022,7,Fan Pier,42.3533905070523,-71.04457139968872,7691,8133,15824,442,Post-Pandemic (2022)
2022,70,Harvard Kennedy School at Bennett St / Eliot St,42.3722168027866,-71.12188071012497,19863,21727,41590,1864,Post-Pandemic (2022)
2022,71,Conway Park - Somerville Avenue,42.383638948222654,-71.10853672027588,11506,11437,22943,-69,Post-Pandemic (2022)
2022,72,One Broadway / Kendall Sq at Main St / 3rd St,42.36224178650923,-71.0831107199192,18329,18559,36888,230,Post-Pandemic (2022)
2022,73,Harvard Square at Brattle St / Eliot St,42.373328798874056,-71.12098601080106,22451,24031,46482,1580,Post-Pandemic (2022)
2022,74,Harvard Square at Mass Ave/ Dunster,42.373268,-71.118579,60303,61366,121669,1063,Post-Pandemic (2022)
2022,75,Lafayette Square at Mass Ave / Main St / Columbia St,42.36346469304347,-71.10057324171066,31389,31448,62837,59,Post-Pandemic (2022)
2022,76,Central Sq Post Office / Cambridge City Hall at Mass Ave / Pleasant St,42.366426,-71.105495,28661,28284,56945,-377,Post-Pandemic (2022)
2022,77,Somerville City Hall,42.386844,-71.09812,5368,2979,8347,-2389,Post-Pandemic (2022)
2022,78,Union Square - Somerville,42.379592128983425,-71.09531528175012,796,861,1657,65,Post-Pandemic (2022)
2022,78,Union Square - Somerville,42.37964789967527,-71.09540475672475,12801,13395,26196,594,Post-Pandemic (2022)
2022,78,Union Square - Somerville,42.37972290425592,-71.09387857210095,1724,2032,3756,308,Post-Pandemic (2022)
2022,79,Beacon St at Washington / Kirkland,42.37875351212593,-71.10707223415375,9009,9134,18143,125,Post-Pandemic (2022)
2022,8,Union Square - Brighton Ave at Cambridge St,42.353334,-71.137313,13086,12610,25696,-476,Post-Pandemic (2022)
2022,80,MIT Stata Center at Vassar St / Main St,42.3621312344991,-71.09115600585936,32608,32180,64788,-428,Post-Pandemic (2022)
2022,81,Chinatown T Stop,42.352409,-71.062679,24915,25559,50474,644,Post-Pandemic (2022)
2022,82,Beacon St at Tappan St,42.33826680058037,-71.13894682028331,4327,3484,7811,-843,Post-Pandemic (2022)
2022,84,CambridgeSide Galleria - CambridgeSide PL at Land Blvd,42.366981,-71.076472,2452,2711,5163,259,Post-Pandemic (2022)
2022,84,CambridgeSide Galleria - CambridgeSide PL at Land Blvd,42.367074071490926,-71.07679277658461,12362,13120,25482,758,Post-Pandemic (2022)
2022,85,Spaulding Rehabilitation Hospital - Charlestown Navy Yard,42.378338,-71.048927,8161,8407,16568,246,Post-Pandemic (2022)
2022,86,Brookline Village - Station Street at MBTA,42.33274392304887,-71.11626680949485,9532,9690,19222,158,Post-Pandemic (2022)
2022,87,Harvard University Housing - 115 Putnam Ave at Peabody Terrace,42.366621,-71.114214,16950,16538,33488,-412,Post-Pandemic (2022)
2022,89,Harvard Law School at Mass Ave / Jarvis St,42.379011,-71.119945,15877,15955,31832,78,Post-Pandemic (2022)
2022,9,Commonwealth Ave at Agganis Way,42.35169201885973,-71.11903488636017,35882,36089,71971,207,Post-Pandemic (2022)
2022,90,Lechmere Station at Cambridge St / First St,42.370677,-71.076529,2126,2293,4419,167,Post-Pandemic (2022)
2022,91,One Kendall Square at Hampshire St / Portland St,42.366277,-71.09169,24027,23624,47651,-403,Post-Pandemic (2022)
2022,92,University of Massachusetts Boston - Campus Center,42.31218918475612,-71.03648586203235,2322,2160,4482,-162,Post-Pandemic (2022)
2022,93,JFK/UMass T Stop,42.32033973515723,-71.05118036270142,4077,4633,8710,556,Post-Pandemic (2022)
2022,94,Main St at Austin St,42.375603,-71.064608,7324,7643,14967,319,Post-Pandemic (2022)
2022,95,Cambridge St - at Columbia St / Webster Ave,42.372969,-71.094445,13443,13030,26473,-413,Post-Pandemic (2022)
2022,96,Cambridge Main Library at Broadway / Trowbridge St,42.373379,-71.111075,16327,16790,33117,463,Post-Pandemic (2022)
2022,97,Harvard University River Houses at DeWolfe St / Cowperthwaite St,42.36920617098944,-71.11710637807846,14832,14254,29086,-578,Post-Pandemic (2022)
2022,97,Harvard University River Houses at DeWolfe St / Cowperthwaite St,42.369239074859216,-71.11687034368515,16516,16393,32909,-123,Post-Pandemic (2022)
2022,98,Warren St at Chelsea St,42.371848,-71.060292,16391,15631,32022,-760,Post-Pandemic (2022)
2022,99,Wilson Square,42.38567578752914,-71.11412136298895,6343,5908,12251,-435,Post-Pandemic (2022)
2023,10,B.U. Central - 725 Comm. Ave.,42.350406,-71.108279,2228,2193,4421,-35,Post-Pandemic (2023)
2023,100,Davis Square,42.396969,-71.123024,2721,2778,5499,57,Post-Pandemic (2023)
2023,101,Ball Sq,42.39936816059618,-71.11111521723615,111,91,202,-20,Post-Pandemic (2023)
2023,102,Powder House Circle - Nathan Tufts Park,42.400877,-71.116772,636,639,1275,3,Post-Pandemic (2023)
2023,103,JFK Crossing at Harvard St. / Thorndike St.,42.346551241753566,-71.1283321143128,646,567,1213,-79,Post-Pandemic (2023)
2023,104,Harvard University Radcliffe Quadrangle at Shepard St / Garden St,42.380287,-71.125107,2468,2474,4942,6,Post-Pandemic (2023)
2023,105,Lower Cambridgeport at Magazine St / Riverside Rd,42.357218503176526,-71.1138716340065,3953,3893,7846,-60,Post-Pandemic (2023)
2023,107,Ames St at Main St,42.3625,-71.08822,3971,4188,8159,217,Post-Pandemic (2023)
2023,108,Harvard University / SEAS Cruft-Pierce Halls at 29 Oxford St,42.377945,-71.116865,3061,3046,6107,-15,Post-Pandemic (2023)
2023,109,West End Park,42.36590788445084,-71.06446668505669,791,1282,2073,491,Post-Pandemic (2023)
2023,11,Longwood Ave at Binney St,42.338629,-71.1065,2669,2585,5254,-84,Post-Pandemic (2023)
2023,110,Harvard University Gund Hall at Quincy St / Kirkland St,42.376369,-71.114025,2710,2700,5410,-10,Post-Pandemic (2023)
2023,111,Packard Ave at Powderhouse Blvd,42.40449,-71.123413,756,700,1456,-56,Post-Pandemic (2023)
2023,112,Clarendon Hill at Broadway,42.406302,-71.132446,120,128,248,8,Post-Pandemic (2023)
2023,114,Teele Square,42.40087950159558,-71.12590793383788,747,697,1444,-50,Post-Pandemic (2023)
2023,115,Porter Square Station,42.387995,-71.119084,3008,3006,6014,-2,Post-Pandemic (2023)
2023,116,359 Broadway - Broadway at Fayette Street,42.370803,-71.104412,2899,2312,5211,-587,Post-Pandemic (2023)
2023,117,Binney St / Sixth St,42.36608797388682,-71.08633603909765,1245,1237,2482,-8,Post-Pandemic (2023)
2023,118,Linear Park - Mass. Ave. at Cameron Ave. ,42.397828,-71.130516,1564,1452,3016,-112,Post-Pandemic (2023)
2023,119,South Boston Library - 646 E Broadway,42.335741,-71.03877,1095,1089,2184,-6,Post-Pandemic (2023)
2023,12,Ruggles T Stop - Columbus Ave at Melnea Cass Blvd,42.33624444796878,-71.08798563480377,3395,3717,7112,322,Post-Pandemic (2023)
2023,121,W Broadway at Dorchester St,42.335958979433094,-71.04622899561036,1198,994,2192,-204,Post-Pandemic (2023)
2023,122,Burlington Ave at Brookline Ave,42.345733,-71.100694,127,176,303,49,Post-Pandemic (2023)
2023,124,Curtis Hall - South St at Centre St,42.309054,-71.11543,491,510,1001,19,Post-Pandemic (2023)
2023,125,Hyde Square - Barbara St at Centre St,42.32176525723952,-71.10984160567114,1101,891,1992,-210,Post-Pandemic (2023)
2023,126,Egleston Square - Atherton St at Washington St,42.315692,-71.098634,168,124,292,-44,Post-Pandemic (2023)
2023,13,Boston Medical Center - E Concord St at Harrison Ave,42.33639915372498,-71.07306711393903,269,275,544,6,Post-Pandemic (2023)
2023,131,Jackson Square T Stop,42.32293117195949,-71.10014140605927,1035,1030,2065,-5,Post-Pandemic (2023)
2023,133,Green Street T Stop - Green St at Amory St,42.310579,-71.107341,829,832,1661,3,Post-Pandemic (2023)
2023,135,ID Building East,42.344827,-71.028664,538,548,1086,10,Post-Pandemic (2023)
2023,136,ID Building West,42.344796,-71.031614,852,791,1643,-61,Post-Pandemic (2023)
2023,137,Magoun Square at Trum Field,42.39778339961249,-71.10594004465383,311,351,662,40,Post-Pandemic (2023)
2023,138,Newmarket Square T Stop - Massachusetts Ave at Newmarket Square,42.326599,-71.066498,621,688,1309,67,Post-Pandemic (2023)
2023,139,Dana Park,42.36178043960605,-71.10809952020645,2521,2263,4784,-258,Post-Pandemic (2023)
2023,14,HMS/HSPH - Avenue Louis Pasteur at Longwood Ave,42.3374174845973,-71.10286116600037,2536,2498,5034,-38,Post-Pandemic (2023)
2023,140,Danehy Park,42.388966,-71.132788,505,559,1064,54,Post-Pandemic (2023)
2023,141,Kendall Street,42.36356015842989,-71.08216792345047,986,1032,2018,46,Post-Pandemic (2023)
2023,142,Alewife Station at Russell Field,42.396105,-71.139459,1245,1254,2499,9,Post-Pandemic (2023)
2023,143,EF - North Point Park,42.369885,-71.069957,2236,2293,4529,57,Post-Pandemic (2023)
2023,144,Rogers St & Land Blvd,42.366446738529454,-71.07654601335526,850,878,1728,28,Post-Pandemic (2023)
2023,145,Rindge Avenue - O'Neill Library,42.392766,-71.129042,550,500,1050,-50,Post-Pandemic (2023)
2023,146,Murphy Skating Rink - 1880 Day Blvd,42.336448,-71.023739,337,398,735,61,Post-Pandemic (2023)
2023,149,175 N Harvard St,42.363796,-71.129164,2220,2273,4493,53,Post-Pandemic (2023)
2023,15,Brighton Mills - 370 Western Ave,42.3615457081725,-71.13776206970215,1280,1361,2641,81,Post-Pandemic (2023)
2023,150,State Street at Channel Center,42.344137,-71.052608,1100,1065,2165,-35,Post-Pandemic (2023)
2023,151,Surface Rd at India St,42.358155,-71.052163,1602,1584,3186,-18,Post-Pandemic (2023)
2023,152,Ink Block - Harrison Ave at Herald St,42.345901,-71.063187,1360,1428,2788,68,Post-Pandemic (2023)
2023,156,Somerville Hospital,42.390446216041305,-71.10856622457504,105,72,177,-33,Post-Pandemic (2023)
2023,157,Seaport Blvd at Sleeper St,42.35317809186252,-71.04817356923377,2804,2846,5650,42,Post-Pandemic (2023)
2023,159,S Huntington Ave at Heath St,42.32760387040573,-71.11089169979095,485,433,918,-52,Post-Pandemic (2023)
